[{"id":1,"name":"Afghanistan","population":38928341,"states":[{"id":1,"name":"(Unspecified)","population":38928341,"total":{"date":"2020-05-03","confirmed":2704,"deaths":85,"recovered":345},"lat":"33.93911000","lng":"67.70995300"}],"total":{"date":"2020-05-03","confirmed":2704,"deaths":85,"recovered":345},"lat":"33.93911000","lng":"67.70995300"},{"id":2,"name":"Albania","population":2877800,"states":[{"id":2,"name":"(Unspecified)","population":2877800,"total":{"date":"2020-05-03","confirmed":795,"deaths":31,"recovered":531},"lat":"41.15330000","lng":"20.16830000"}],"total":{"date":"2020-05-03","confirmed":795,"deaths":31,"recovered":531},"lat":"41.15330000","lng":"20.16830000"},{"id":3,"name":"Algeria","population":43851043,"states":[{"id":3,"name":"(Unspecified)","population":43851043,"total":{"date":"2020-05-03","confirmed":4295,"deaths":459,"recovered":1872},"lat":"28.03390000","lng":"1.65960000"}],"total":{"date":"2020-05-03","confirmed":4295,"deaths":459,"recovered":1872},"lat":"28.03390000","lng":"1.65960000"},{"id":4,"name":"Andorra","population":77265,"states":[{"id":4,"name":"(Unspecified)","population":77265,"total":{"date":"2020-05-03","confirmed":747,"deaths":44,"recovered":472},"lat":"42.50630000","lng":"1.52180000"}],"total":{"date":"2020-05-03","confirmed":747,"deaths":44,"recovered":472},"lat":"42.50630000","lng":"1.52180000"},{"id":5,"name":"Angola","population":32866268,"states":[{"id":5,"name":"(Unspecified)","population":32866268,"total":{"date":"2020-05-03","confirmed":35,"deaths":2,"recovered":11},"lat":"-11.20270000","lng":"17.87390000"}],"total":{"date":"2020-05-03","confirmed":35,"deaths":2,"recovered":11},"lat":"-11.20270000","lng":"17.87390000"},{"id":6,"name":"Antigua and Barbuda","population":97928,"states":[{"id":6,"name":"(Unspecified)","population":97928,"total":{"date":"2020-05-03","confirmed":25,"deaths":3,"recovered":15},"lat":"17.06080000","lng":"-61.79640000"}],"total":{"date":"2020-05-03","confirmed":25,"deaths":3,"recovered":15},"lat":"17.06080000","lng":"-61.79640000"},{"id":7,"name":"Argentina","population":45195777,"states":[{"id":7,"name":"(Unspecified)","population":45195777,"total":{"date":"2020-05-03","confirmed":4681,"deaths":237,"recovered":1320},"lat":"-38.41610000","lng":"-63.61670000"}],"total":{"date":"2020-05-03","confirmed":4681,"deaths":237,"recovered":1320},"lat":"-38.41610000","lng":"-63.61670000"},{"id":8,"name":"Armenia","population":2963234,"states":[{"id":8,"name":"(Unspecified)","population":2963234,"total":{"date":"2020-05-03","confirmed":2386,"deaths":35,"recovered":1035},"lat":"40.06910000","lng":"45.03820000"}],"total":{"date":"2020-05-03","confirmed":2386,"deaths":35,"recovered":1035},"lat":"40.06910000","lng":"45.03820000"},{"id":9,"name":"Austria","population":9006400,"states":[{"id":9,"name":"(Unspecified)","population":9006400,"total":{"date":"2020-05-03","confirmed":15597,"deaths":598,"recovered":13228},"lat":"47.51620000","lng":"14.55010000"}],"total":{"date":"2020-05-03","confirmed":15597,"deaths":598,"recovered":13228},"lat":"47.51620000","lng":"14.55010000"},{"id":10,"name":"Azerbaijan","population":10139175,"states":[{"id":10,"name":"(Unspecified)","population":10139175,"total":{"date":"2020-05-03","confirmed":1932,"deaths":25,"recovered":1441},"lat":"40.14310000","lng":"47.57690000"}],"total":{"date":"2020-05-03","confirmed":1932,"deaths":25,"recovered":1441},"lat":"40.14310000","lng":"47.57690000"},{"id":11,"name":"Bahamas","population":393248,"states":[{"id":11,"name":"(Unspecified)","population":393248,"total":{"date":"2020-05-03","confirmed":83,"deaths":11,"recovered":24},"lat":"25.02588500","lng":"-78.03588900"}],"total":{"date":"2020-05-03","confirmed":83,"deaths":11,"recovered":24},"lat":"25.02588500","lng":"-78.03588900"},{"id":12,"name":"Bahrain","population":1701583,"states":[{"id":12,"name":"(Unspecified)","population":1701583,"total":{"date":"2020-05-03","confirmed":3356,"deaths":8,"recovered":1717},"lat":"26.02750000","lng":"50.55000000"}],"total":{"date":"2020-05-03","confirmed":3356,"deaths":8,"recovered":1717},"lat":"26.02750000","lng":"50.55000000"},{"id":13,"name":"Bangladesh","population":164689383,"states":[{"id":13,"name":"(Unspecified)","population":164689383,"total":{"date":"2020-05-03","confirmed":9455,"deaths":177,"recovered":1063},"lat":"23.68500000","lng":"90.35630000"}],"total":{"date":"2020-05-03","confirmed":9455,"deaths":177,"recovered":1063},"lat":"23.68500000","lng":"90.35630000"},{"id":14,"name":"Barbados","population":287371,"states":[{"id":14,"name":"(Unspecified)","population":287371,"total":{"date":"2020-05-03","confirmed":81,"deaths":7,"recovered":44},"lat":"13.19390000","lng":"-59.54320000"}],"total":{"date":"2020-05-03","confirmed":81,"deaths":7,"recovered":44},"lat":"13.19390000","lng":"-59.54320000"},{"id":15,"name":"Belarus","population":9449321,"states":[{"id":15,"name":"(Unspecified)","population":9449321,"total":{"date":"2020-05-03","confirmed":16705,"deaths":99,"recovered":3196},"lat":"53.70980000","lng":"27.95340000"}],"total":{"date":"2020-05-03","confirmed":16705,"deaths":99,"recovered":3196},"lat":"53.70980000","lng":"27.95340000"},{"id":16,"name":"Belgium","population":11589616,"states":[{"id":16,"name":"(Unspecified)","population":11589616,"total":{"date":"2020-05-03","confirmed":49906,"deaths":7844,"recovered":12309},"lat":"50.83330000","lng":"4.46993600"}],"total":{"date":"2020-05-03","confirmed":49906,"deaths":7844,"recovered":12309},"lat":"50.83330000","lng":"4.46993600"},{"id":17,"name":"Belize","population":397621,"states":[{"id":17,"name":"(Unspecified)","population":397621,"total":{"date":"2020-05-03","confirmed":18,"deaths":2,"recovered":13},"lat":"17.18990000","lng":"-88.49760000"}],"total":{"date":"2020-05-03","confirmed":18,"deaths":2,"recovered":13},"lat":"17.18990000","lng":"-88.49760000"},{"id":18,"name":"Benin","population":12123198,"states":[{"id":18,"name":"(Unspecified)","population":12123198,"total":{"date":"2020-05-03","confirmed":90,"deaths":2,"recovered":42},"lat":"9.30770000","lng":"2.31580000"}],"total":{"date":"2020-05-03","confirmed":90,"deaths":2,"recovered":42},"lat":"9.30770000","lng":"2.31580000"},{"id":19,"name":"Bhutan","population":771612,"states":[{"id":19,"name":"(Unspecified)","population":771612,"total":{"date":"2020-05-03","confirmed":7,"deaths":0,"recovered":5},"lat":"27.51420000","lng":"90.43360000"}],"total":{"date":"2020-05-03","confirmed":7,"deaths":0,"recovered":5},"lat":"27.51420000","lng":"90.43360000"},{"id":20,"name":"Bolivia","population":11673029,"states":[{"id":20,"name":"(Unspecified)","population":11673029,"total":{"date":"2020-05-03","confirmed":1470,"deaths":71,"recovered":159},"lat":"-16.29020000","lng":"-63.58870000"}],"total":{"date":"2020-05-03","confirmed":1470,"deaths":71,"recovered":159},"lat":"-16.29020000","lng":"-63.58870000"},{"id":21,"name":"Bosnia and Herzegovina","population":3280815,"states":[{"id":21,"name":"(Unspecified)","population":3280815,"total":{"date":"2020-05-03","confirmed":1857,"deaths":77,"recovered":825},"lat":"43.91590000","lng":"17.67910000"}],"total":{"date":"2020-05-03","confirmed":1857,"deaths":77,"recovered":825},"lat":"43.91590000","lng":"17.67910000"},{"id":22,"name":"Botswana","population":2351625,"states":[{"id":22,"name":"(Unspecified)","population":2351625,"total":{"date":"2020-05-03","confirmed":23,"deaths":1,"recovered":8},"lat":"-22.32850000","lng":"24.68490000"}],"total":{"date":"2020-05-03","confirmed":23,"deaths":1,"recovered":8},"lat":"-22.32850000","lng":"24.68490000"},{"id":23,"name":"Brazil","population":212559409,"states":[{"id":23,"name":"(Unspecified)","population":212559409,"total":{"date":"2020-05-03","confirmed":97100,"deaths":6761,"recovered":40973},"lat":"-14.23500000","lng":"-51.92530000"}],"total":{"date":"2020-05-03","confirmed":97100,"deaths":6761,"recovered":40973},"lat":"-14.23500000","lng":"-51.92530000"},{"id":24,"name":"Brunei","population":437483,"states":[{"id":24,"name":"(Unspecified)","population":437483,"total":{"date":"2020-05-03","confirmed":138,"deaths":1,"recovered":128},"lat":"4.53530000","lng":"114.72770000"}],"total":{"date":"2020-05-03","confirmed":138,"deaths":1,"recovered":128},"lat":"4.53530000","lng":"114.72770000"},{"id":25,"name":"Bulgaria","population":6948445,"states":[{"id":25,"name":"(Unspecified)","population":6948445,"total":{"date":"2020-05-03","confirmed":1611,"deaths":72,"recovered":308},"lat":"42.73390000","lng":"25.48580000"}],"total":{"date":"2020-05-03","confirmed":1611,"deaths":72,"recovered":308},"lat":"42.73390000","lng":"25.48580000"},{"id":26,"name":"Burkina Faso","population":20903278,"states":[{"id":26,"name":"(Unspecified)","population":20903278,"total":{"date":"2020-05-03","confirmed":652,"deaths":44,"recovered":535},"lat":"12.23830000","lng":"-1.56160000"}],"total":{"date":"2020-05-03","confirmed":652,"deaths":44,"recovered":535},"lat":"12.23830000","lng":"-1.56160000"},{"id":27,"name":"Burma","population":54409794,"states":[{"id":27,"name":"(Unspecified)","population":54409794,"total":{"date":"2020-05-03","confirmed":151,"deaths":6,"recovered":37},"lat":"21.91620000","lng":"95.95600000"}],"total":{"date":"2020-05-03","confirmed":151,"deaths":6,"recovered":37},"lat":"21.91620000","lng":"95.95600000"},{"id":28,"name":"Burundi","population":11890781,"states":[{"id":28,"name":"(Unspecified)","population":11890781,"total":{"date":"2020-05-03","confirmed":15,"deaths":1,"recovered":7},"lat":"-3.37310000","lng":"29.91890000"}],"total":{"date":"2020-05-03","confirmed":15,"deaths":1,"recovered":7},"lat":"-3.37310000","lng":"29.91890000"},{"id":29,"name":"Cabo Verde","population":555988,"states":[{"id":29,"name":"(Unspecified)","population":555988,"total":{"date":"2020-05-03","confirmed":152,"deaths":2,"recovered":18},"lat":"16.53880000","lng":"-23.04180000"}],"total":{"date":"2020-05-03","confirmed":152,"deaths":2,"recovered":18},"lat":"16.53880000","lng":"-23.04180000"},{"id":30,"name":"Cambodia","population":16718971,"states":[{"id":30,"name":"(Unspecified)","population":16718971,"total":{"date":"2020-05-03","confirmed":122,"deaths":0,"recovered":120},"lat":"11.55000000","lng":"104.91670000"}],"total":{"date":"2020-05-03","confirmed":122,"deaths":0,"recovered":120},"lat":"11.55000000","lng":"104.91670000"},{"id":31,"name":"Cameroon","population":26545864,"states":[{"id":31,"name":"(Unspecified)","population":26545864,"total":{"date":"2020-05-03","confirmed":2077,"deaths":64,"recovered":953},"lat":"3.84800000","lng":"11.50210000"}],"total":{"date":"2020-05-03","confirmed":2077,"deaths":64,"recovered":953},"lat":"3.84800000","lng":"11.50210000"},{"id":32,"name":"Central African Republic","population":4829764,"states":[{"id":32,"name":"(Unspecified)","population":4829764,"total":{"date":"2020-05-03","confirmed":72,"deaths":0,"recovered":10},"lat":"6.61110000","lng":"20.93940000"}],"total":{"date":"2020-05-03","confirmed":72,"deaths":0,"recovered":10},"lat":"6.61110000","lng":"20.93940000"},{"id":33,"name":"Chad","population":16425859,"states":[{"id":33,"name":"(Unspecified)","population":16425859,"total":{"date":"2020-05-03","confirmed":117,"deaths":10,"recovered":39},"lat":"15.45420000","lng":"18.73220000"}],"total":{"date":"2020-05-03","confirmed":117,"deaths":10,"recovered":39},"lat":"15.45420000","lng":"18.73220000"},{"id":34,"name":"Chile","population":19116209,"states":[{"id":34,"name":"(Unspecified)","population":19116209,"total":{"date":"2020-05-03","confirmed":18435,"deaths":247,"recovered":9572},"lat":"-35.67510000","lng":"-71.54300000"}],"total":{"date":"2020-05-03","confirmed":18435,"deaths":247,"recovered":9572},"lat":"-35.67510000","lng":"-71.54300000"},{"id":35,"name":"Colombia","population":50882884,"states":[{"id":35,"name":"(Unspecified)","population":50882884,"total":{"date":"2020-05-03","confirmed":7285,"deaths":324,"recovered":1666},"lat":"4.57090000","lng":"-74.29730000"}],"total":{"date":"2020-05-03","confirmed":7285,"deaths":324,"recovered":1666},"lat":"4.57090000","lng":"-74.29730000"},{"id":36,"name":"Congo (Brazzaville)","population":5518092,"states":[{"id":36,"name":"(Unspecified)","population":5518092,"total":{"date":"2020-05-03","confirmed":229,"deaths":9,"recovered":25},"lat":"-4.26340000","lng":"15.28320000"}],"total":{"date":"2020-05-03","confirmed":229,"deaths":9,"recovered":25},"lat":"-4.26340000","lng":"15.28320000"},{"id":37,"name":"Congo (Kinshasa)","population":89561404,"states":[{"id":37,"name":"(Unspecified)","population":89561404,"total":{"date":"2020-05-03","confirmed":674,"deaths":33,"recovered":75},"lat":"-4.32244700","lng":"15.30704500"}],"total":{"date":"2020-05-03","confirmed":674,"deaths":33,"recovered":75},"lat":"-4.32244700","lng":"15.30704500"},{"id":38,"name":"Costa Rica","population":5094114,"states":[{"id":38,"name":"(Unspecified)","population":5094114,"total":{"date":"2020-05-03","confirmed":733,"deaths":6,"recovered":372},"lat":"9.74890000","lng":"-83.75340000"}],"total":{"date":"2020-05-03","confirmed":733,"deaths":6,"recovered":372},"lat":"9.74890000","lng":"-83.75340000"},{"id":39,"name":"Cote d'Ivoire","population":26378275,"states":[{"id":39,"name":"(Unspecified)","population":26378275,"total":{"date":"2020-05-03","confirmed":1362,"deaths":15,"recovered":622},"lat":"7.54000000","lng":"-5.54710000"}],"total":{"date":"2020-05-03","confirmed":1362,"deaths":15,"recovered":622},"lat":"7.54000000","lng":"-5.54710000"},{"id":40,"name":"Croatia","population":4105268,"states":[{"id":40,"name":"(Unspecified)","population":4105268,"total":{"date":"2020-05-03","confirmed":2096,"deaths":79,"recovered":1489},"lat":"45.10000000","lng":"15.20000000"}],"total":{"date":"2020-05-03","confirmed":2096,"deaths":79,"recovered":1489},"lat":"45.10000000","lng":"15.20000000"},{"id":41,"name":"Cuba","population":11326616,"states":[{"id":41,"name":"(Unspecified)","population":11326616,"total":{"date":"2020-05-03","confirmed":1611,"deaths":66,"recovered":765},"lat":"21.52175700","lng":"-77.78116700"}],"total":{"date":"2020-05-03","confirmed":1611,"deaths":66,"recovered":765},"lat":"21.52175700","lng":"-77.78116700"},{"id":42,"name":"Cyprus","population":1207361,"states":[{"id":42,"name":"(Unspecified)","population":1207361,"total":{"date":"2020-05-03","confirmed":864,"deaths":15,"recovered":296},"lat":"35.12640000","lng":"33.42990000"}],"total":{"date":"2020-05-03","confirmed":864,"deaths":15,"recovered":296},"lat":"35.12640000","lng":"33.42990000"},{"id":43,"name":"Czechia","population":10708982,"states":[{"id":43,"name":"(Unspecified)","population":10708982,"total":{"date":"2020-05-03","confirmed":7755,"deaths":245,"recovered":3471},"lat":"49.81750000","lng":"15.47300000"}],"total":{"date":"2020-05-03","confirmed":7755,"deaths":245,"recovered":3471},"lat":"49.81750000","lng":"15.47300000"},{"id":44,"name":"Denmark","population":5792203,"states":[{"id":44,"name":"(Unspecified)","population":5792203,"total":{"date":"2020-05-03","confirmed":9407,"deaths":484,"recovered":6889},"lat":"56.26390000","lng":"9.50180000"},{"id":182,"name":"Faroe Islands","population":48865,"total":{"date":"2020-05-03","confirmed":187,"deaths":0,"recovered":184},"lat":"61.89260000","lng":"-6.91180000"},{"id":183,"name":"Greenland","population":56772,"total":{"date":"2020-05-03","confirmed":11,"deaths":0,"recovered":11},"lat":"71.70690000","lng":"-42.60430000"}],"total":{"date":"2020-05-03","confirmed":9605,"deaths":484,"recovered":7084},"lat":"56.26390000","lng":"9.50180000"},{"id":45,"name":"Diamond Princess","population":0,"states":[{"id":45,"name":"(Unspecified)","population":0,"total":{"date":"2020-05-03","confirmed":712,"deaths":13,"recovered":651},"lat":"0.00000000","lng":"0.00000000"}],"total":{"date":"2020-05-03","confirmed":712,"deaths":13,"recovered":651},"lat":"0.00000000","lng":"0.00000000"},{"id":46,"name":"Djibouti","population":988002,"states":[{"id":46,"name":"(Unspecified)","population":988002,"total":{"date":"2020-05-03","confirmed":1112,"deaths":2,"recovered":686},"lat":"11.82510000","lng":"42.59030000"}],"total":{"date":"2020-05-03","confirmed":1112,"deaths":2,"recovered":686},"lat":"11.82510000","lng":"42.59030000"},{"id":47,"name":"Dominica","population":71991,"states":[{"id":47,"name":"(Unspecified)","population":71991,"total":{"date":"2020-05-03","confirmed":16,"deaths":0,"recovered":13},"lat":"15.41500000","lng":"-61.37100000"}],"total":{"date":"2020-05-03","confirmed":16,"deaths":0,"recovered":13},"lat":"15.41500000","lng":"-61.37100000"},{"id":48,"name":"Dominican Republic","population":10847904,"states":[{"id":48,"name":"(Unspecified)","population":10847904,"total":{"date":"2020-05-03","confirmed":7578,"deaths":326,"recovered":1481},"lat":"18.73570000","lng":"-70.16270000"}],"total":{"date":"2020-05-03","confirmed":7578,"deaths":326,"recovered":1481},"lat":"18.73570000","lng":"-70.16270000"},{"id":49,"name":"Ecuador","population":17643060,"states":[{"id":49,"name":"(Unspecified)","population":17643060,"total":{"date":"2020-05-03","confirmed":27464,"deaths":1371,"recovered":2132},"lat":"-1.83120000","lng":"-78.18340000"}],"total":{"date":"2020-05-03","confirmed":27464,"deaths":1371,"recovered":2132},"lat":"-1.83120000","lng":"-78.18340000"},{"id":50,"name":"Egypt","population":102334403,"states":[{"id":50,"name":"(Unspecified)","population":102334403,"total":{"date":"2020-05-03","confirmed":6193,"deaths":415,"recovered":1522},"lat":"26.82055300","lng":"30.80249800"}],"total":{"date":"2020-05-03","confirmed":6193,"deaths":415,"recovered":1522},"lat":"26.82055300","lng":"30.80249800"},{"id":51,"name":"El Salvador","population":6486201,"states":[{"id":51,"name":"(Unspecified)","population":6486201,"total":{"date":"2020-05-03","confirmed":490,"deaths":11,"recovered":154},"lat":"13.79420000","lng":"-88.89650000"}],"total":{"date":"2020-05-03","confirmed":490,"deaths":11,"recovered":154},"lat":"13.79420000","lng":"-88.89650000"},{"id":52,"name":"Equatorial Guinea","population":1402985,"states":[{"id":52,"name":"(Unspecified)","population":1402985,"total":{"date":"2020-05-03","confirmed":315,"deaths":1,"recovered":9},"lat":"1.65080000","lng":"10.26790000"}],"total":{"date":"2020-05-03","confirmed":315,"deaths":1,"recovered":9},"lat":"1.65080000","lng":"10.26790000"},{"id":53,"name":"Eritrea","population":3546427,"states":[{"id":53,"name":"(Unspecified)","population":3546427,"total":{"date":"2020-05-03","confirmed":39,"deaths":0,"recovered":26},"lat":"15.17940000","lng":"39.78230000"}],"total":{"date":"2020-05-03","confirmed":39,"deaths":0,"recovered":26},"lat":"15.17940000","lng":"39.78230000"},{"id":54,"name":"Estonia","population":1326539,"states":[{"id":54,"name":"(Unspecified)","population":1326539,"total":{"date":"2020-05-03","confirmed":1700,"deaths":55,"recovered":259},"lat":"58.59530000","lng":"25.01360000"}],"total":{"date":"2020-05-03","confirmed":1700,"deaths":55,"recovered":259},"lat":"58.59530000","lng":"25.01360000"},{"id":55,"name":"Eswatini","population":1160164,"states":[{"id":55,"name":"(Unspecified)","population":1160164,"total":{"date":"2020-05-03","confirmed":108,"deaths":1,"recovered":12},"lat":"-26.52250000","lng":"31.46590000"}],"total":{"date":"2020-05-03","confirmed":108,"deaths":1,"recovered":12},"lat":"-26.52250000","lng":"31.46590000"},{"id":56,"name":"Ethiopia","population":114963583,"states":[{"id":56,"name":"(Unspecified)","population":114963583,"total":{"date":"2020-05-03","confirmed":135,"deaths":3,"recovered":75},"lat":"9.14500000","lng":"40.48970000"}],"total":{"date":"2020-05-03","confirmed":135,"deaths":3,"recovered":75},"lat":"9.14500000","lng":"40.48970000"},{"id":57,"name":"Fiji","population":896444,"states":[{"id":57,"name":"(Unspecified)","population":896444,"total":{"date":"2020-05-03","confirmed":18,"deaths":0,"recovered":14},"lat":"-17.71340000","lng":"178.06500000"}],"total":{"date":"2020-05-03","confirmed":18,"deaths":0,"recovered":14},"lat":"-17.71340000","lng":"178.06500000"},{"id":58,"name":"Finland","population":5540718,"states":[{"id":58,"name":"(Unspecified)","population":5540718,"total":{"date":"2020-05-03","confirmed":5254,"deaths":230,"recovered":3000},"lat":"61.92411000","lng":"25.74815100"}],"total":{"date":"2020-05-03","confirmed":5254,"deaths":230,"recovered":3000},"lat":"61.92411000","lng":"25.74815100"},{"id":59,"name":"France","population":65273512,"states":[{"id":59,"name":"(Unspecified)","population":65273512,"total":{"date":"2020-05-03","confirmed":166976,"deaths":24729,"recovered":49751},"lat":"46.22760000","lng":"2.21370000"},{"id":184,"name":"French Guiana","population":298682,"total":{"date":"2020-05-03","confirmed":128,"deaths":1,"recovered":98},"lat":"4.00000000","lng":"-53.00000000"},{"id":185,"name":"French Polynesia","population":280904,"total":{"date":"2020-05-03","confirmed":58,"deaths":0,"recovered":51},"lat":"-17.67970000","lng":"149.40680000"},{"id":186,"name":"Guadeloupe","population":400127,"total":{"date":"2020-05-03","confirmed":152,"deaths":12,"recovered":95},"lat":"16.26500000","lng":"-61.55100000"},{"id":187,"name":"Martinique","population":375265,"total":{"date":"2020-05-03","confirmed":179,"deaths":14,"recovered":83},"lat":"14.64150000","lng":"-61.02420000"},{"id":188,"name":"Mayotte","population":272813,"total":{"date":"2020-05-03","confirmed":539,"deaths":4,"recovered":235},"lat":"-12.82750000","lng":"45.16624400"},{"id":189,"name":"New Caledonia","population":285491,"total":{"date":"2020-05-03","confirmed":18,"deaths":0,"recovered":17},"lat":"-20.90430500","lng":"165.61804200"},{"id":190,"name":"Reunion","population":895308,"total":{"date":"2020-05-03","confirmed":423,"deaths":0,"recovered":300},"lat":"-21.11510000","lng":"55.53640000"},{"id":191,"name":"Saint Barthelemy","population":9885,"total":{"date":"2020-05-03","confirmed":6,"deaths":0,"recovered":6},"lat":"17.90000000","lng":"-62.83330000"},{"id":192,"name":"Saint Pierre and Miquelon","population":5795,"total":{"date":"2020-05-03","confirmed":1,"deaths":0,"recovered":0},"lat":"46.88520000","lng":"-56.31590000"},{"id":193,"name":"St Martin","population":38659,"total":{"date":"2020-05-03","confirmed":38,"deaths":3,"recovered":27},"lat":"18.07080000","lng":"-63.05010000"}],"total":{"date":"2020-05-03","confirmed":168518,"deaths":24763,"recovered":50663},"lat":"46.22760000","lng":"2.21370000"},{"id":60,"name":"Gabon","population":2225728,"states":[{"id":60,"name":"(Unspecified)","population":2225728,"total":{"date":"2020-05-03","confirmed":335,"deaths":5,"recovered":85},"lat":"-0.80370000","lng":"11.60940000"}],"total":{"date":"2020-05-03","confirmed":335,"deaths":5,"recovered":85},"lat":"-0.80370000","lng":"11.60940000"},{"id":61,"name":"Gambia","population":2416664,"states":[{"id":61,"name":"(Unspecified)","population":2416664,"total":{"date":"2020-05-03","confirmed":17,"deaths":1,"recovered":9},"lat":"13.44320000","lng":"-15.31010000"}],"total":{"date":"2020-05-03","confirmed":17,"deaths":1,"recovered":9},"lat":"13.44320000","lng":"-15.31010000"},{"id":62,"name":"Georgia","population":3989175,"states":[{"id":62,"name":"(Unspecified)","population":3989175,"total":{"date":"2020-05-03","confirmed":589,"deaths":9,"recovered":221},"lat":"42.31540000","lng":"43.35690000"}],"total":{"date":"2020-05-03","confirmed":589,"deaths":9,"recovered":221},"lat":"42.31540000","lng":"43.35690000"},{"id":63,"name":"Germany","population":83783945,"states":[{"id":63,"name":"(Unspecified)","population":83783945,"total":{"date":"2020-05-03","confirmed":165016,"deaths":6812,"recovered":130600},"lat":"51.16569100","lng":"10.45152600"}],"total":{"date":"2020-05-03","confirmed":165016,"deaths":6812,"recovered":130600},"lat":"51.16569100","lng":"10.45152600"},{"id":64,"name":"Ghana","population":31072945,"states":[{"id":64,"name":"(Unspecified)","population":31072945,"total":{"date":"2020-05-03","confirmed":2169,"deaths":18,"recovered":229},"lat":"7.94650000","lng":"-1.02320000"}],"total":{"date":"2020-05-03","confirmed":2169,"deaths":18,"recovered":229},"lat":"7.94650000","lng":"-1.02320000"},{"id":65,"name":"Greece","population":10423056,"states":[{"id":65,"name":"(Unspecified)","population":10423056,"total":{"date":"2020-05-03","confirmed":2620,"deaths":144,"recovered":1473},"lat":"39.07420000","lng":"21.82430000"}],"total":{"date":"2020-05-03","confirmed":2620,"deaths":144,"recovered":1473},"lat":"39.07420000","lng":"21.82430000"},{"id":66,"name":"Grenada","population":112519,"states":[{"id":66,"name":"(Unspecified)","population":112519,"total":{"date":"2020-05-03","confirmed":21,"deaths":0,"recovered":13},"lat":"12.11650000","lng":"-61.67900000"}],"total":{"date":"2020-05-03","confirmed":21,"deaths":0,"recovered":13},"lat":"12.11650000","lng":"-61.67900000"},{"id":67,"name":"Guatemala","population":17915567,"states":[{"id":67,"name":"(Unspecified)","population":17915567,"total":{"date":"2020-05-03","confirmed":688,"deaths":17,"recovered":72},"lat":"15.78350000","lng":"-90.23080000"}],"total":{"date":"2020-05-03","confirmed":688,"deaths":17,"recovered":72},"lat":"15.78350000","lng":"-90.23080000"},{"id":68,"name":"Guinea","population":13132792,"states":[{"id":68,"name":"(Unspecified)","population":13132792,"total":{"date":"2020-05-03","confirmed":1586,"deaths":7,"recovered":405},"lat":"9.94560000","lng":"-9.69660000"}],"total":{"date":"2020-05-03","confirmed":1586,"deaths":7,"recovered":405},"lat":"9.94560000","lng":"-9.69660000"},{"id":69,"name":"Guinea-Bissau","population":1967998,"states":[{"id":69,"name":"(Unspecified)","population":1967998,"total":{"date":"2020-05-03","confirmed":257,"deaths":1,"recovered":19},"lat":"11.80370000","lng":"-15.18040000"}],"total":{"date":"2020-05-03","confirmed":257,"deaths":1,"recovered":19},"lat":"11.80370000","lng":"-15.18040000"},{"id":70,"name":"Guyana","population":786559,"states":[{"id":70,"name":"(Unspecified)","population":786559,"total":{"date":"2020-05-03","confirmed":82,"deaths":9,"recovered":24},"lat":"4.86041600","lng":"-58.93018000"}],"total":{"date":"2020-05-03","confirmed":82,"deaths":9,"recovered":24},"lat":"4.86041600","lng":"-58.93018000"},{"id":71,"name":"Haiti","population":11402533,"states":[{"id":71,"name":"(Unspecified)","population":11402533,"total":{"date":"2020-05-03","confirmed":85,"deaths":8,"recovered":10},"lat":"18.97120000","lng":"-72.28520000"}],"total":{"date":"2020-05-03","confirmed":85,"deaths":8,"recovered":10},"lat":"18.97120000","lng":"-72.28520000"},{"id":72,"name":"Holy See","population":809,"states":[{"id":72,"name":"(Unspecified)","population":809,"total":{"date":"2020-05-03","confirmed":11,"deaths":0,"recovered":2},"lat":"41.90290000","lng":"12.45340000"}],"total":{"date":"2020-05-03","confirmed":11,"deaths":0,"recovered":2},"lat":"41.90290000","lng":"12.45340000"},{"id":73,"name":"Honduras","population":9904608,"states":[{"id":73,"name":"(Unspecified)","population":9904608,"total":{"date":"2020-05-03","confirmed":1010,"deaths":76,"recovered":116},"lat":"15.20000000","lng":"-86.24190000"}],"total":{"date":"2020-05-03","confirmed":1010,"deaths":76,"recovered":116},"lat":"15.20000000","lng":"-86.24190000"},{"id":74,"name":"Hungary","population":9660350,"states":[{"id":74,"name":"(Unspecified)","population":9660350,"total":{"date":"2020-05-03","confirmed":2998,"deaths":340,"recovered":629},"lat":"47.16250000","lng":"19.50330000"}],"total":{"date":"2020-05-03","confirmed":2998,"deaths":340,"recovered":629},"lat":"47.16250000","lng":"19.50330000"},{"id":75,"name":"Iceland","population":341250,"states":[{"id":75,"name":"(Unspecified)","population":341250,"total":{"date":"2020-05-03","confirmed":1798,"deaths":10,"recovered":1706},"lat":"64.96310000","lng":"-19.02080000"}],"total":{"date":"2020-05-03","confirmed":1798,"deaths":10,"recovered":1706},"lat":"64.96310000","lng":"-19.02080000"},{"id":76,"name":"India","population":1380004385,"states":[{"id":76,"name":"(Unspecified)","population":1380004385,"total":{"date":"2020-05-03","confirmed":40263,"deaths":1323,"recovered":10887},"lat":"20.59368400","lng":"78.96288000"}],"total":{"date":"2020-05-03","confirmed":40263,"deaths":1323,"recovered":10887},"lat":"20.59368400","lng":"78.96288000"},{"id":77,"name":"Indonesia","population":273523621,"states":[{"id":77,"name":"(Unspecified)","population":273523621,"total":{"date":"2020-05-03","confirmed":11192,"deaths":845,"recovered":1876},"lat":"-0.78930000","lng":"113.92130000"}],"total":{"date":"2020-05-03","confirmed":11192,"deaths":845,"recovered":1876},"lat":"-0.78930000","lng":"113.92130000"},{"id":78,"name":"Iran","population":83992953,"states":[{"id":78,"name":"(Unspecified)","population":83992953,"total":{"date":"2020-05-03","confirmed":97424,"deaths":6203,"recovered":78422},"lat":"32.42790800","lng":"53.68804600"}],"total":{"date":"2020-05-03","confirmed":97424,"deaths":6203,"recovered":78422},"lat":"32.42790800","lng":"53.68804600"},{"id":79,"name":"Iraq","population":40222503,"states":[{"id":79,"name":"(Unspecified)","population":40222503,"total":{"date":"2020-05-03","confirmed":2219,"deaths":95,"recovered":1473},"lat":"33.22319100","lng":"43.67929100"}],"total":{"date":"2020-05-03","confirmed":2219,"deaths":95,"recovered":1473},"lat":"33.22319100","lng":"43.67929100"},{"id":80,"name":"Ireland","population":4937796,"states":[{"id":80,"name":"(Unspecified)","population":4937796,"total":{"date":"2020-05-03","confirmed":21176,"deaths":1286,"recovered":13386},"lat":"53.14240000","lng":"-7.69210000"}],"total":{"date":"2020-05-03","confirmed":21176,"deaths":1286,"recovered":13386},"lat":"53.14240000","lng":"-7.69210000"},{"id":81,"name":"Israel","population":8655541,"states":[{"id":81,"name":"(Unspecified)","population":8655541,"total":{"date":"2020-05-03","confirmed":16193,"deaths":230,"recovered":9634},"lat":"31.04605100","lng":"34.85161200"}],"total":{"date":"2020-05-03","confirmed":16193,"deaths":230,"recovered":9634},"lat":"31.04605100","lng":"34.85161200"},{"id":82,"name":"Italy","population":60461828,"states":[{"id":82,"name":"(Unspecified)","population":60461828,"total":{"date":"2020-05-03","confirmed":209328,"deaths":28710,"recovered":79914},"lat":"41.87194000","lng":"12.56738000"}],"total":{"date":"2020-05-03","confirmed":209328,"deaths":28710,"recovered":79914},"lat":"41.87194000","lng":"12.56738000"},{"id":83,"name":"Jamaica","population":2961161,"states":[{"id":83,"name":"(Unspecified)","population":2961161,"total":{"date":"2020-05-03","confirmed":463,"deaths":8,"recovered":33},"lat":"18.10960000","lng":"-77.29750000"}],"total":{"date":"2020-05-03","confirmed":463,"deaths":8,"recovered":33},"lat":"18.10960000","lng":"-77.29750000"},{"id":84,"name":"Japan","population":126476458,"states":[{"id":84,"name":"(Unspecified)","population":126476458,"total":{"date":"2020-05-03","confirmed":14877,"deaths":517,"recovered":3981},"lat":"36.20482400","lng":"138.25292400"}],"total":{"date":"2020-05-03","confirmed":14877,"deaths":517,"recovered":3981},"lat":"36.20482400","lng":"138.25292400"},{"id":85,"name":"Jordan","population":10203140,"states":[{"id":85,"name":"(Unspecified)","population":10203140,"total":{"date":"2020-05-03","confirmed":460,"deaths":9,"recovered":367},"lat":"31.24000000","lng":"36.51000000"}],"total":{"date":"2020-05-03","confirmed":460,"deaths":9,"recovered":367},"lat":"31.24000000","lng":"36.51000000"},{"id":86,"name":"Kazakhstan","population":18776707,"states":[{"id":86,"name":"(Unspecified)","population":18776707,"total":{"date":"2020-05-03","confirmed":3913,"deaths":27,"recovered":1056},"lat":"48.01960000","lng":"66.92370000"}],"total":{"date":"2020-05-03","confirmed":3913,"deaths":27,"recovered":1056},"lat":"48.01960000","lng":"66.92370000"},{"id":87,"name":"Kenya","population":53771300,"states":[{"id":87,"name":"(Unspecified)","population":53771300,"total":{"date":"2020-05-03","confirmed":435,"deaths":22,"recovered":152},"lat":"-0.02360000","lng":"37.90620000"}],"total":{"date":"2020-05-03","confirmed":435,"deaths":22,"recovered":152},"lat":"-0.02360000","lng":"37.90620000"},{"id":88,"name":"South Korea","population":51269183,"states":[{"id":88,"name":"(Unspecified)","population":51269183,"total":{"date":"2020-05-03","confirmed":10793,"deaths":250,"recovered":9183},"lat":"35.90775700","lng":"127.76692200"}],"total":{"date":"2020-05-03","confirmed":10793,"deaths":250,"recovered":9183},"lat":"35.90775700","lng":"127.76692200"},{"id":89,"name":"Kosovo","population":1810366,"states":[{"id":89,"name":"(Unspecified)","population":1810366,"total":{"date":"2020-05-03","confirmed":823,"deaths":22,"recovered":336},"lat":"42.60263600","lng":"20.90297700"}],"total":{"date":"2020-05-03","confirmed":823,"deaths":22,"recovered":336},"lat":"42.60263600","lng":"20.90297700"},{"id":90,"name":"Kuwait","population":4270563,"states":[{"id":90,"name":"(Unspecified)","population":4270563,"total":{"date":"2020-05-03","confirmed":4983,"deaths":38,"recovered":1776},"lat":"29.31166000","lng":"47.48176600"}],"total":{"date":"2020-05-03","confirmed":4983,"deaths":38,"recovered":1776},"lat":"29.31166000","lng":"47.48176600"},{"id":91,"name":"Kyrgyzstan","population":6524191,"states":[{"id":91,"name":"(Unspecified)","population":6524191,"total":{"date":"2020-05-03","confirmed":795,"deaths":10,"recovered":564},"lat":"41.20438000","lng":"74.76609800"}],"total":{"date":"2020-05-03","confirmed":795,"deaths":10,"recovered":564},"lat":"41.20438000","lng":"74.76609800"},{"id":92,"name":"Laos","population":7275556,"states":[{"id":92,"name":"(Unspecified)","population":7275556,"total":{"date":"2020-05-03","confirmed":19,"deaths":0,"recovered":9},"lat":"19.85627000","lng":"102.49549600"}],"total":{"date":"2020-05-03","confirmed":19,"deaths":0,"recovered":9},"lat":"19.85627000","lng":"102.49549600"},{"id":93,"name":"Latvia","population":1886202,"states":[{"id":93,"name":"(Unspecified)","population":1886202,"total":{"date":"2020-05-03","confirmed":879,"deaths":16,"recovered":348},"lat":"56.87960000","lng":"24.60320000"}],"total":{"date":"2020-05-03","confirmed":879,"deaths":16,"recovered":348},"lat":"56.87960000","lng":"24.60320000"},{"id":94,"name":"Lebanon","population":6825442,"states":[{"id":94,"name":"(Unspecified)","population":6825442,"total":{"date":"2020-05-03","confirmed":737,"deaths":25,"recovered":200},"lat":"33.85470000","lng":"35.86230000"}],"total":{"date":"2020-05-03","confirmed":737,"deaths":25,"recovered":200},"lat":"33.85470000","lng":"35.86230000"},{"id":95,"name":"Liberia","population":5057677,"states":[{"id":95,"name":"(Unspecified)","population":5057677,"total":{"date":"2020-05-03","confirmed":154,"deaths":18,"recovered":48},"lat":"6.42805500","lng":"-9.42949900"}],"total":{"date":"2020-05-03","confirmed":154,"deaths":18,"recovered":48},"lat":"6.42805500","lng":"-9.42949900"},{"id":96,"name":"Libya","population":6871287,"states":[{"id":96,"name":"(Unspecified)","population":6871287,"total":{"date":"2020-05-03","confirmed":63,"deaths":3,"recovered":22},"lat":"26.33510000","lng":"17.22833100"}],"total":{"date":"2020-05-03","confirmed":63,"deaths":3,"recovered":22},"lat":"26.33510000","lng":"17.22833100"},{"id":97,"name":"Liechtenstein","population":38137,"states":[{"id":97,"name":"(Unspecified)","population":38137,"total":{"date":"2020-05-03","confirmed":82,"deaths":1,"recovered":55},"lat":"47.14000000","lng":"9.55000000"}],"total":{"date":"2020-05-03","confirmed":82,"deaths":1,"recovered":55},"lat":"47.14000000","lng":"9.55000000"},{"id":98,"name":"Lithuania","population":2722291,"states":[{"id":98,"name":"(Unspecified)","population":2722291,"total":{"date":"2020-05-03","confirmed":1410,"deaths":46,"recovered":635},"lat":"55.16940000","lng":"23.88130000"}],"total":{"date":"2020-05-03","confirmed":1410,"deaths":46,"recovered":635},"lat":"55.16940000","lng":"23.88130000"},{"id":99,"name":"Luxembourg","population":625976,"states":[{"id":99,"name":"(Unspecified)","population":625976,"total":{"date":"2020-05-03","confirmed":3812,"deaths":92,"recovered":3318},"lat":"49.81530000","lng":"6.12960000"}],"total":{"date":"2020-05-03","confirmed":3812,"deaths":92,"recovered":3318},"lat":"49.81530000","lng":"6.12960000"},{"id":100,"name":"Madagascar","population":27691019,"states":[{"id":100,"name":"(Unspecified)","population":27691019,"total":{"date":"2020-05-03","confirmed":149,"deaths":0,"recovered":98},"lat":"-18.76694700","lng":"46.86910700"}],"total":{"date":"2020-05-03","confirmed":149,"deaths":0,"recovered":98},"lat":"-18.76694700","lng":"46.86910700"},{"id":101,"name":"Malawi","population":19129955,"states":[{"id":101,"name":"(Unspecified)","population":19129955,"total":{"date":"2020-05-03","confirmed":39,"deaths":3,"recovered":9},"lat":"-13.25430000","lng":"34.30150000"}],"total":{"date":"2020-05-03","confirmed":39,"deaths":3,"recovered":9},"lat":"-13.25430000","lng":"34.30150000"},{"id":102,"name":"Malaysia","population":32365998,"states":[{"id":102,"name":"(Unspecified)","population":32365998,"total":{"date":"2020-05-03","confirmed":6298,"deaths":105,"recovered":4413},"lat":"4.21048400","lng":"101.97576600"}],"total":{"date":"2020-05-03","confirmed":6298,"deaths":105,"recovered":4413},"lat":"4.21048400","lng":"101.97576600"},{"id":103,"name":"Maldives","population":540542,"states":[{"id":103,"name":"(Unspecified)","population":540542,"total":{"date":"2020-05-03","confirmed":519,"deaths":1,"recovered":18},"lat":"3.20280000","lng":"73.22070000"}],"total":{"date":"2020-05-03","confirmed":519,"deaths":1,"recovered":18},"lat":"3.20280000","lng":"73.22070000"},{"id":104,"name":"Mali","population":20250834,"states":[{"id":104,"name":"(Unspecified)","population":20250834,"total":{"date":"2020-05-03","confirmed":544,"deaths":26,"recovered":206},"lat":"17.57069200","lng":"-3.99616600"}],"total":{"date":"2020-05-03","confirmed":544,"deaths":26,"recovered":206},"lat":"17.57069200","lng":"-3.99616600"},{"id":105,"name":"Malta","population":441539,"states":[{"id":105,"name":"(Unspecified)","population":441539,"total":{"date":"2020-05-03","confirmed":477,"deaths":4,"recovered":392},"lat":"35.93750000","lng":"14.37540000"}],"total":{"date":"2020-05-03","confirmed":477,"deaths":4,"recovered":392},"lat":"35.93750000","lng":"14.37540000"},{"id":106,"name":"Mauritania","population":4649660,"states":[{"id":106,"name":"(Unspecified)","population":4649660,"total":{"date":"2020-05-03","confirmed":8,"deaths":1,"recovered":6},"lat":"21.00790000","lng":"-10.94080000"}],"total":{"date":"2020-05-03","confirmed":8,"deaths":1,"recovered":6},"lat":"21.00790000","lng":"-10.94080000"},{"id":107,"name":"Mauritius","population":1271767,"states":[{"id":107,"name":"(Unspecified)","population":1271767,"total":{"date":"2020-05-03","confirmed":332,"deaths":10,"recovered":315},"lat":"-20.34840400","lng":"57.55215200"}],"total":{"date":"2020-05-03","confirmed":332,"deaths":10,"recovered":315},"lat":"-20.34840400","lng":"57.55215200"},{"id":108,"name":"Mexico","population":128932753,"states":[{"id":108,"name":"(Unspecified)","population":128932753,"total":{"date":"2020-05-03","confirmed":22088,"deaths":2061,"recovered":13447},"lat":"23.63450000","lng":"-102.55280000"}],"total":{"date":"2020-05-03","confirmed":22088,"deaths":2061,"recovered":13447},"lat":"23.63450000","lng":"-102.55280000"},{"id":109,"name":"Moldova","population":4033963,"states":[{"id":109,"name":"(Unspecified)","population":4033963,"total":{"date":"2020-05-03","confirmed":4052,"deaths":124,"recovered":1382},"lat":"47.41160000","lng":"28.36990000"}],"total":{"date":"2020-05-03","confirmed":4052,"deaths":124,"recovered":1382},"lat":"47.41160000","lng":"28.36990000"},{"id":110,"name":"Monaco","population":39244,"states":[{"id":110,"name":"(Unspecified)","population":39244,"total":{"date":"2020-05-03","confirmed":95,"deaths":4,"recovered":78},"lat":"43.73330000","lng":"7.41670000"}],"total":{"date":"2020-05-03","confirmed":95,"deaths":4,"recovered":78},"lat":"43.73330000","lng":"7.41670000"},{"id":111,"name":"Mongolia","population":3278292,"states":[{"id":111,"name":"(Unspecified)","population":3278292,"total":{"date":"2020-05-03","confirmed":39,"deaths":0,"recovered":10},"lat":"46.86250000","lng":"103.84670000"}],"total":{"date":"2020-05-03","confirmed":39,"deaths":0,"recovered":10},"lat":"46.86250000","lng":"103.84670000"},{"id":112,"name":"Montenegro","population":628062,"states":[{"id":112,"name":"(Unspecified)","population":628062,"total":{"date":"2020-05-03","confirmed":322,"deaths":8,"recovered":249},"lat":"42.70867800","lng":"19.37439000"}],"total":{"date":"2020-05-03","confirmed":322,"deaths":8,"recovered":249},"lat":"42.70867800","lng":"19.37439000"},{"id":113,"name":"Morocco","population":36910558,"states":[{"id":113,"name":"(Unspecified)","population":36910558,"total":{"date":"2020-05-03","confirmed":4880,"deaths":174,"recovered":1424},"lat":"31.79170000","lng":"-7.09260000"}],"total":{"date":"2020-05-03","confirmed":4880,"deaths":174,"recovered":1424},"lat":"31.79170000","lng":"-7.09260000"},{"id":114,"name":"Mozambique","population":31255435,"states":[{"id":114,"name":"(Unspecified)","population":31255435,"total":{"date":"2020-05-03","confirmed":79,"deaths":0,"recovered":18},"lat":"-18.66569500","lng":"35.52956200"}],"total":{"date":"2020-05-03","confirmed":79,"deaths":0,"recovered":18},"lat":"-18.66569500","lng":"35.52956200"},{"id":115,"name":"MS Zaandam","population":0,"states":[{"id":115,"name":"(Unspecified)","population":0,"total":{"date":"2020-05-03","confirmed":13,"deaths":4,"recovered":0},"lat":"0.00000000","lng":"0.00000000"}],"total":{"date":"2020-05-03","confirmed":13,"deaths":4,"recovered":0},"lat":"0.00000000","lng":"0.00000000"},{"id":116,"name":"Namibia","population":2540916,"states":[{"id":116,"name":"(Unspecified)","population":2540916,"total":{"date":"2020-05-03","confirmed":16,"deaths":0,"recovered":8},"lat":"-22.95760000","lng":"18.49040000"}],"total":{"date":"2020-05-03","confirmed":16,"deaths":0,"recovered":8},"lat":"-22.95760000","lng":"18.49040000"},{"id":117,"name":"Nepal","population":29136808,"states":[{"id":117,"name":"(Unspecified)","population":29136808,"total":{"date":"2020-05-03","confirmed":69,"deaths":0,"recovered":16},"lat":"28.16670000","lng":"84.25000000"}],"total":{"date":"2020-05-03","confirmed":69,"deaths":0,"recovered":16},"lat":"28.16670000","lng":"84.25000000"},{"id":118,"name":"Netherlands","population":17134873,"states":[{"id":118,"name":"(Unspecified)","population":17134873,"total":{"date":"2020-05-03","confirmed":40373,"deaths":5040,"recovered":0},"lat":"52.13260000","lng":"5.29130000"},{"id":194,"name":"Aruba","population":106766,"total":{"date":"2020-05-03","confirmed":100,"deaths":2,"recovered":81},"lat":"12.52110000","lng":"-69.96830000"},{"id":195,"name":"Curacao","population":164100,"total":{"date":"2020-05-03","confirmed":16,"deaths":1,"recovered":13},"lat":"12.16960000","lng":"-68.99000000"},{"id":196,"name":"Sint Maarten","population":42882,"total":{"date":"2020-05-03","confirmed":76,"deaths":13,"recovered":44},"lat":"18.04250000","lng":"-63.05480000"},{"id":197,"name":"Bonaire, Sint Eustatius and Saba","population":26221,"total":{"date":"2020-05-03","confirmed":6,"deaths":0,"recovered":0},"lat":"12.17840000","lng":"-68.23850000"}],"total":{"date":"2020-05-03","confirmed":40571,"deaths":5056,"recovered":138},"lat":"52.13260000","lng":"5.29130000"},{"id":119,"name":"New Zealand","population":4822233,"states":[{"id":119,"name":"(Unspecified)","population":4822233,"total":{"date":"2020-05-03","confirmed":1487,"deaths":20,"recovered":1266},"lat":"-40.90060000","lng":"174.88600000"}],"total":{"date":"2020-05-03","confirmed":1487,"deaths":20,"recovered":1266},"lat":"-40.90060000","lng":"174.88600000"},{"id":120,"name":"Nicaragua","population":6624554,"states":[{"id":120,"name":"(Unspecified)","population":6624554,"total":{"date":"2020-05-03","confirmed":14,"deaths":4,"recovered":7},"lat":"12.86541600","lng":"-85.20722900"}],"total":{"date":"2020-05-03","confirmed":14,"deaths":4,"recovered":7},"lat":"12.86541600","lng":"-85.20722900"},{"id":121,"name":"Niger","population":24206636,"states":[{"id":121,"name":"(Unspecified)","population":24206636,"total":{"date":"2020-05-03","confirmed":736,"deaths":35,"recovered":507},"lat":"17.60778900","lng":"8.08166600"}],"total":{"date":"2020-05-03","confirmed":736,"deaths":35,"recovered":507},"lat":"17.60778900","lng":"8.08166600"},{"id":122,"name":"Nigeria","population":206139587,"states":[{"id":122,"name":"(Unspecified)","population":206139587,"total":{"date":"2020-05-03","confirmed":2388,"deaths":85,"recovered":385},"lat":"9.08200000","lng":"8.67530000"}],"total":{"date":"2020-05-03","confirmed":2388,"deaths":85,"recovered":385},"lat":"9.08200000","lng":"8.67530000"},{"id":123,"name":"North Macedonia","population":2083380,"states":[{"id":123,"name":"(Unspecified)","population":2083380,"total":{"date":"2020-05-03","confirmed":1511,"deaths":84,"recovered":8945},"lat":"41.60860000","lng":"21.74530000"}],"total":{"date":"2020-05-03","confirmed":1511,"deaths":84,"recovered":8945},"lat":"41.60860000","lng":"21.74530000"},{"id":124,"name":"Norway","population":5421242,"states":[{"id":124,"name":"(Unspecified)","population":5421242,"total":{"date":"2020-05-03","confirmed":7809,"deaths":211,"recovered":32},"lat":"60.47200000","lng":"8.46890000"}],"total":{"date":"2020-05-03","confirmed":7809,"deaths":211,"recovered":32},"lat":"60.47200000","lng":"8.46890000"},{"id":125,"name":"Oman","population":5106622,"states":[{"id":125,"name":"(Unspecified)","population":5106622,"total":{"date":"2020-05-03","confirmed":2568,"deaths":12,"recovered":750},"lat":"21.51258300","lng":"55.92325500"}],"total":{"date":"2020-05-03","confirmed":2568,"deaths":12,"recovered":750},"lat":"21.51258300","lng":"55.92325500"},{"id":126,"name":"Pakistan","population":220892331,"states":[{"id":126,"name":"(Unspecified)","population":220892331,"total":{"date":"2020-05-03","confirmed":19103,"deaths":440,"recovered":4817},"lat":"30.37530000","lng":"69.34510000"}],"total":{"date":"2020-05-03","confirmed":19103,"deaths":440,"recovered":4817},"lat":"30.37530000","lng":"69.34510000"},{"id":127,"name":"Panama","population":4314768,"states":[{"id":127,"name":"(Unspecified)","population":4314768,"total":{"date":"2020-05-03","confirmed":7090,"deaths":197,"recovered":641},"lat":"8.53800000","lng":"-80.78210000"}],"total":{"date":"2020-05-03","confirmed":7090,"deaths":197,"recovered":641},"lat":"8.53800000","lng":"-80.78210000"},{"id":128,"name":"Papua New Guinea","population":8947027,"states":[{"id":128,"name":"(Unspecified)","population":8947027,"total":{"date":"2020-05-03","confirmed":8,"deaths":0,"recovered":0},"lat":"-6.31499300","lng":"143.95555000"}],"total":{"date":"2020-05-03","confirmed":8,"deaths":0,"recovered":0},"lat":"-6.31499300","lng":"143.95555000"},{"id":129,"name":"Paraguay","population":7132530,"states":[{"id":129,"name":"(Unspecified)","population":7132530,"total":{"date":"2020-05-03","confirmed":370,"deaths":109,"recovered":119},"lat":"-23.44250000","lng":"-58.44380000"}],"total":{"date":"2020-05-03","confirmed":370,"deaths":109,"recovered":119},"lat":"-23.44250000","lng":"-58.44380000"},{"id":130,"name":"Peru","population":32971846,"states":[{"id":130,"name":"(Unspecified)","population":32971846,"total":{"date":"2020-05-03","confirmed":42534,"deaths":1200,"recovered":12434},"lat":"-9.19000000","lng":"-75.01520000"}],"total":{"date":"2020-05-03","confirmed":42534,"deaths":1200,"recovered":12434},"lat":"-9.19000000","lng":"-75.01520000"},{"id":131,"name":"Philippines","population":109581085,"states":[{"id":131,"name":"(Unspecified)","population":109581085,"total":{"date":"2020-05-03","confirmed":9223,"deaths":607,"recovered":1214},"lat":"12.87972100","lng":"121.77401700"}],"total":{"date":"2020-05-03","confirmed":9223,"deaths":607,"recovered":1214},"lat":"12.87972100","lng":"121.77401700"},{"id":132,"name":"Poland","population":37846605,"states":[{"id":132,"name":"(Unspecified)","population":37846605,"total":{"date":"2020-05-03","confirmed":13693,"deaths":678,"recovered":3945},"lat":"51.91940000","lng":"19.14510000"}],"total":{"date":"2020-05-03","confirmed":13693,"deaths":678,"recovered":3945},"lat":"51.91940000","lng":"19.14510000"},{"id":133,"name":"Portugal","population":10196707,"states":[{"id":133,"name":"(Unspecified)","population":10196707,"total":{"date":"2020-05-03","confirmed":25190,"deaths":1023,"recovered":1671},"lat":"39.39990000","lng":"-8.22450000"}],"total":{"date":"2020-05-03","confirmed":25190,"deaths":1023,"recovered":1671},"lat":"39.39990000","lng":"-8.22450000"},{"id":134,"name":"Qatar","population":2881060,"states":[{"id":134,"name":"(Unspecified)","population":2881060,"total":{"date":"2020-05-03","confirmed":15551,"deaths":12,"recovered":1664},"lat":"25.35480000","lng":"51.18390000"}],"total":{"date":"2020-05-03","confirmed":15551,"deaths":12,"recovered":1664},"lat":"25.35480000","lng":"51.18390000"},{"id":135,"name":"Romania","population":19237682,"states":[{"id":135,"name":"(Unspecified)","population":19237682,"total":{"date":"2020-05-03","confirmed":13163,"deaths":790,"recovered":4869},"lat":"45.94320000","lng":"24.96680000"}],"total":{"date":"2020-05-03","confirmed":13163,"deaths":790,"recovered":4869},"lat":"45.94320000","lng":"24.96680000"},{"id":136,"name":"Russia","population":145934460,"states":[{"id":136,"name":"(Unspecified)","population":145934460,"total":{"date":"2020-05-03","confirmed":134687,"deaths":1280,"recovered":16639},"lat":"61.52401000","lng":"105.31875600"}],"total":{"date":"2020-05-03","confirmed":134687,"deaths":1280,"recovered":16639},"lat":"61.52401000","lng":"105.31875600"},{"id":137,"name":"Rwanda","population":12952209,"states":[{"id":137,"name":"(Unspecified)","population":12952209,"total":{"date":"2020-05-03","confirmed":255,"deaths":0,"recovered":120},"lat":"-1.94030000","lng":"29.87390000"}],"total":{"date":"2020-05-03","confirmed":255,"deaths":0,"recovered":120},"lat":"-1.94030000","lng":"29.87390000"},{"id":138,"name":"Saint Kitts and Nevis","population":53192,"states":[{"id":138,"name":"(Unspecified)","population":53192,"total":{"date":"2020-05-03","confirmed":15,"deaths":0,"recovered":8},"lat":"17.35782200","lng":"-62.78299800"}],"total":{"date":"2020-05-03","confirmed":15,"deaths":0,"recovered":8},"lat":"17.35782200","lng":"-62.78299800"},{"id":139,"name":"Saint Lucia","population":183629,"states":[{"id":139,"name":"(Unspecified)","population":183629,"total":{"date":"2020-05-03","confirmed":17,"deaths":0,"recovered":15},"lat":"13.90940000","lng":"-60.97890000"}],"total":{"date":"2020-05-03","confirmed":17,"deaths":0,"recovered":15},"lat":"13.90940000","lng":"-60.97890000"},{"id":140,"name":"Saint Vincent and the Grenadines","population":110947,"states":[{"id":140,"name":"(Unspecified)","population":110947,"total":{"date":"2020-05-03","confirmed":16,"deaths":0,"recovered":8},"lat":"12.98430000","lng":"-61.28720000"}],"total":{"date":"2020-05-03","confirmed":16,"deaths":0,"recovered":8},"lat":"12.98430000","lng":"-61.28720000"},{"id":141,"name":"San Marino","population":33938,"states":[{"id":141,"name":"(Unspecified)","population":33938,"total":{"date":"2020-05-03","confirmed":582,"deaths":41,"recovered":86},"lat":"43.94240000","lng":"12.45780000"}],"total":{"date":"2020-05-03","confirmed":582,"deaths":41,"recovered":86},"lat":"43.94240000","lng":"12.45780000"},{"id":142,"name":"Sao Tome and Principe","population":219161,"states":[{"id":142,"name":"(Unspecified)","population":219161,"total":{"date":"2020-05-03","confirmed":16,"deaths":1,"recovered":4},"lat":"0.18640000","lng":"6.61310000"}],"total":{"date":"2020-05-03","confirmed":16,"deaths":1,"recovered":4},"lat":"0.18640000","lng":"6.61310000"},{"id":143,"name":"Saudi Arabia","population":34813867,"states":[{"id":143,"name":"(Unspecified)","population":34813867,"total":{"date":"2020-05-03","confirmed":27011,"deaths":184,"recovered":4134},"lat":"23.88594200","lng":"45.07916200"}],"total":{"date":"2020-05-03","confirmed":27011,"deaths":184,"recovered":4134},"lat":"23.88594200","lng":"45.07916200"},{"id":144,"name":"Senegal","population":16743930,"states":[{"id":144,"name":"(Unspecified)","population":16743930,"total":{"date":"2020-05-03","confirmed":1115,"deaths":9,"recovered":368},"lat":"14.49740000","lng":"-14.45240000"}],"total":{"date":"2020-05-03","confirmed":1115,"deaths":9,"recovered":368},"lat":"14.49740000","lng":"-14.45240000"},{"id":145,"name":"Serbia","population":8737370,"states":[{"id":145,"name":"(Unspecified)","population":8737370,"total":{"date":"2020-05-03","confirmed":9362,"deaths":189,"recovered":1426},"lat":"44.01650000","lng":"21.00590000"}],"total":{"date":"2020-05-03","confirmed":9362,"deaths":189,"recovered":1426},"lat":"44.01650000","lng":"21.00590000"},{"id":146,"name":"Seychelles","population":98340,"states":[{"id":146,"name":"(Unspecified)","population":98340,"total":{"date":"2020-05-03","confirmed":11,"deaths":0,"recovered":7},"lat":"-4.67960000","lng":"55.49200000"}],"total":{"date":"2020-05-03","confirmed":11,"deaths":0,"recovered":7},"lat":"-4.67960000","lng":"55.49200000"},{"id":147,"name":"Sierra Leone","population":7976985,"states":[{"id":147,"name":"(Unspecified)","population":7976985,"total":{"date":"2020-05-03","confirmed":155,"deaths":8,"recovered":21},"lat":"8.46055500","lng":"-11.77988900"}],"total":{"date":"2020-05-03","confirmed":155,"deaths":8,"recovered":21},"lat":"8.46055500","lng":"-11.77988900"},{"id":148,"name":"Singapore","population":5850343,"states":[{"id":148,"name":"(Unspecified)","population":5850343,"total":{"date":"2020-05-03","confirmed":18205,"deaths":17,"recovered":1347},"lat":"1.28330000","lng":"103.83330000"}],"total":{"date":"2020-05-03","confirmed":18205,"deaths":17,"recovered":1347},"lat":"1.28330000","lng":"103.83330000"},{"id":149,"name":"Slovakia","population":5459643,"states":[{"id":149,"name":"(Unspecified)","population":5459643,"total":{"date":"2020-05-03","confirmed":1408,"deaths":24,"recovered":619},"lat":"48.66900000","lng":"19.69900000"}],"total":{"date":"2020-05-03","confirmed":1408,"deaths":24,"recovered":619},"lat":"48.66900000","lng":"19.69900000"},{"id":150,"name":"Slovenia","population":2078932,"states":[{"id":150,"name":"(Unspecified)","population":2078932,"total":{"date":"2020-05-03","confirmed":1439,"deaths":96,"recovered":241},"lat":"46.15120000","lng":"14.99550000"}],"total":{"date":"2020-05-03","confirmed":1439,"deaths":96,"recovered":241},"lat":"46.15120000","lng":"14.99550000"},{"id":151,"name":"Somalia","population":15893219,"states":[{"id":151,"name":"(Unspecified)","population":15893219,"total":{"date":"2020-05-03","confirmed":671,"deaths":31,"recovered":34},"lat":"5.15214900","lng":"46.19961600"}],"total":{"date":"2020-05-03","confirmed":671,"deaths":31,"recovered":34},"lat":"5.15214900","lng":"46.19961600"},{"id":152,"name":"South Africa","population":59308690,"states":[{"id":152,"name":"(Unspecified)","population":59308690,"total":{"date":"2020-05-03","confirmed":6336,"deaths":123,"recovered":2549},"lat":"-30.55950000","lng":"22.93750000"}],"total":{"date":"2020-05-03","confirmed":6336,"deaths":123,"recovered":2549},"lat":"-30.55950000","lng":"22.93750000"},{"id":153,"name":"South Sudan","population":11193729,"states":[{"id":153,"name":"(Unspecified)","population":11193729,"total":{"date":"2020-05-03","confirmed":46,"deaths":0,"recovered":0},"lat":"6.87700000","lng":"31.30700000"}],"total":{"date":"2020-05-03","confirmed":46,"deaths":0,"recovered":0},"lat":"6.87700000","lng":"31.30700000"},{"id":154,"name":"Spain","population":46754783,"states":[{"id":154,"name":"(Unspecified)","population":46754783,"total":{"date":"2020-05-03","confirmed":245567,"deaths":25264,"recovered":146233},"lat":"40.46366700","lng":"-3.74922000"}],"total":{"date":"2020-05-03","confirmed":245567,"deaths":25264,"recovered":146233},"lat":"40.46366700","lng":"-3.74922000"},{"id":155,"name":"Sri Lanka","population":21413250,"states":[{"id":155,"name":"(Unspecified)","population":21413250,"total":{"date":"2020-05-03","confirmed":705,"deaths":7,"recovered":182},"lat":"7.87305400","lng":"80.77179700"}],"total":{"date":"2020-05-03","confirmed":705,"deaths":7,"recovered":182},"lat":"7.87305400","lng":"80.77179700"},{"id":156,"name":"Sudan","population":43849269,"states":[{"id":156,"name":"(Unspecified)","population":43849269,"total":{"date":"2020-05-03","confirmed":592,"deaths":41,"recovered":52},"lat":"12.86280000","lng":"30.21760000"}],"total":{"date":"2020-05-03","confirmed":592,"deaths":41,"recovered":52},"lat":"12.86280000","lng":"30.21760000"},{"id":157,"name":"Suriname","population":586634,"states":[{"id":157,"name":"(Unspecified)","population":586634,"total":{"date":"2020-05-03","confirmed":10,"deaths":1,"recovered":8},"lat":"3.91930000","lng":"-56.02780000"}],"total":{"date":"2020-05-03","confirmed":10,"deaths":1,"recovered":8},"lat":"3.91930000","lng":"-56.02780000"},{"id":158,"name":"Sweden","population":10099270,"states":[{"id":158,"name":"(Unspecified)","population":10099270,"total":{"date":"2020-05-03","confirmed":22317,"deaths":2679,"recovered":1543},"lat":"60.12816100","lng":"18.64350100"}],"total":{"date":"2020-05-03","confirmed":22317,"deaths":2679,"recovered":1543},"lat":"60.12816100","lng":"18.64350100"},{"id":159,"name":"Switzerland","population":8654618,"states":[{"id":159,"name":"(Unspecified)","population":8654618,"total":{"date":"2020-05-03","confirmed":29905,"deaths":1762,"recovered":24200},"lat":"46.81820000","lng":"8.22750000"}],"total":{"date":"2020-05-03","confirmed":29905,"deaths":1762,"recovered":24200},"lat":"46.81820000","lng":"8.22750000"},{"id":160,"name":"Syria","population":17500657,"states":[{"id":160,"name":"(Unspecified)","population":17500657,"total":{"date":"2020-05-03","confirmed":44,"deaths":3,"recovered":27},"lat":"34.80207500","lng":"38.99681500"}],"total":{"date":"2020-05-03","confirmed":44,"deaths":3,"recovered":27},"lat":"34.80207500","lng":"38.99681500"},{"id":161,"name":"Taiwan","population":23816775,"states":[{"id":161,"name":"(Unspecified)","population":23816775,"total":{"date":"2020-05-03","confirmed":432,"deaths":6,"recovered":332},"lat":"23.70000000","lng":"121.00000000"}],"total":{"date":"2020-05-03","confirmed":432,"deaths":6,"recovered":332},"lat":"23.70000000","lng":"121.00000000"},{"id":162,"name":"Tanzania","population":59734213,"states":[{"id":162,"name":"(Unspecified)","population":59734213,"total":{"date":"2020-05-03","confirmed":480,"deaths":16,"recovered":167},"lat":"-6.36902800","lng":"34.88882200"}],"total":{"date":"2020-05-03","confirmed":480,"deaths":16,"recovered":167},"lat":"-6.36902800","lng":"34.88882200"},{"id":163,"name":"Thailand","population":69799978,"states":[{"id":163,"name":"(Unspecified)","population":69799978,"total":{"date":"2020-05-03","confirmed":2969,"deaths":54,"recovered":2739},"lat":"15.87003200","lng":"100.99254100"}],"total":{"date":"2020-05-03","confirmed":2969,"deaths":54,"recovered":2739},"lat":"15.87003200","lng":"100.99254100"},{"id":164,"name":"Timor-Leste","population":1318442,"states":[{"id":164,"name":"(Unspecified)","population":1318442,"total":{"date":"2020-05-03","confirmed":24,"deaths":0,"recovered":16},"lat":"-8.87421700","lng":"125.72753900"}],"total":{"date":"2020-05-03","confirmed":24,"deaths":0,"recovered":16},"lat":"-8.87421700","lng":"125.72753900"},{"id":165,"name":"Togo","population":8278737,"states":[{"id":165,"name":"(Unspecified)","population":8278737,"total":{"date":"2020-05-03","confirmed":123,"deaths":9,"recovered":66},"lat":"8.61950000","lng":"0.82480000"}],"total":{"date":"2020-05-03","confirmed":123,"deaths":9,"recovered":66},"lat":"8.61950000","lng":"0.82480000"},{"id":166,"name":"Trinidad and Tobago","population":1399491,"states":[{"id":166,"name":"(Unspecified)","population":1399491,"total":{"date":"2020-05-03","confirmed":116,"deaths":8,"recovered":88},"lat":"10.69180000","lng":"-61.22250000"}],"total":{"date":"2020-05-03","confirmed":116,"deaths":8,"recovered":88},"lat":"10.69180000","lng":"-61.22250000"},{"id":167,"name":"Tunisia","population":11818618,"states":[{"id":167,"name":"(Unspecified)","population":11818618,"total":{"date":"2020-05-03","confirmed":1009,"deaths":42,"recovered":323},"lat":"33.88691700","lng":"9.53749900"}],"total":{"date":"2020-05-03","confirmed":1009,"deaths":42,"recovered":323},"lat":"33.88691700","lng":"9.53749900"},{"id":168,"name":"Turkey","population":84339067,"states":[{"id":168,"name":"(Unspecified)","population":84339067,"total":{"date":"2020-05-03","confirmed":124375,"deaths":3336,"recovered":58259},"lat":"38.96370000","lng":"35.24330000"}],"total":{"date":"2020-05-03","confirmed":124375,"deaths":3336,"recovered":58259},"lat":"38.96370000","lng":"35.24330000"},{"id":169,"name":"Uganda","population":45741000,"states":[{"id":169,"name":"(Unspecified)","population":45741000,"total":{"date":"2020-05-03","confirmed":88,"deaths":0,"recovered":52},"lat":"1.37333300","lng":"32.29027500"}],"total":{"date":"2020-05-03","confirmed":88,"deaths":0,"recovered":52},"lat":"1.37333300","lng":"32.29027500"},{"id":170,"name":"Ukraine","population":43733759,"states":[{"id":170,"name":"(Unspecified)","population":43733759,"total":{"date":"2020-05-03","confirmed":11913,"deaths":288,"recovered":1548},"lat":"48.37940000","lng":"31.16560000"}],"total":{"date":"2020-05-03","confirmed":11913,"deaths":288,"recovered":1548},"lat":"48.37940000","lng":"31.16560000"},{"id":171,"name":"United Arab Emirates","population":9890400,"states":[{"id":171,"name":"(Unspecified)","population":9890400,"total":{"date":"2020-05-03","confirmed":14163,"deaths":126,"recovered":2763},"lat":"23.42407600","lng":"53.84781800"}],"total":{"date":"2020-05-03","confirmed":14163,"deaths":126,"recovered":2763},"lat":"23.42407600","lng":"53.84781800"},{"id":172,"name":"United Kingdom","population":67886004,"states":[{"id":172,"name":"(Unspecified)","population":67886004,"total":{"date":"2020-05-03","confirmed":182260,"deaths":28131,"recovered":0},"lat":"55.37810000","lng":"-3.43600000"},{"id":198,"name":"Anguilla","population":15002,"total":{"date":"2020-05-03","confirmed":3,"deaths":0,"recovered":3},"lat":"18.22060000","lng":"-63.06860000"},{"id":199,"name":"Bermuda","population":62273,"total":{"date":"2020-05-03","confirmed":114,"deaths":7,"recovered":51},"lat":"32.30780000","lng":"-64.75050000"},{"id":200,"name":"British Virgin Islands","population":30237,"total":{"date":"2020-05-03","confirmed":6,"deaths":1,"recovered":3},"lat":"18.42070000","lng":"-64.64000000"},{"id":201,"name":"Cayman Islands","population":65720,"total":{"date":"2020-05-03","confirmed":74,"deaths":1,"recovered":10},"lat":"19.31330000","lng":"-81.25460000"},{"id":202,"name":"Channel Islands","population":170499,"total":{"date":"2020-05-03","confirmed":543,"deaths":41,"recovered":406},"lat":"49.37230000","lng":"-2.36440000"},{"id":203,"name":"Falkland Islands (Malvinas)","population":3483,"total":{"date":"2020-05-03","confirmed":13,"deaths":0,"recovered":13},"lat":"-51.79630000","lng":"-59.52360000"},{"id":204,"name":"Gibraltar","population":33691,"total":{"date":"2020-05-03","confirmed":144,"deaths":0,"recovered":132},"lat":"36.14080000","lng":"-5.35360000"},{"id":205,"name":"Isle of Man","population":85032,"total":{"date":"2020-05-03","confirmed":320,"deaths":22,"recovered":271},"lat":"54.23610000","lng":"-4.54810000"},{"id":206,"name":"Montserrat","population":4999,"total":{"date":"2020-05-03","confirmed":11,"deaths":1,"recovered":2},"lat":"16.74249800","lng":"-62.18736600"},{"id":207,"name":"Turks and Caicos Islands","population":38718,"total":{"date":"2020-05-03","confirmed":12,"deaths":1,"recovered":5},"lat":"21.69400000","lng":"-71.79790000"}],"total":{"date":"2020-05-03","confirmed":183500,"deaths":28205,"recovered":896},"lat":"55.37810000","lng":"-3.43600000"},{"id":173,"name":"Uruguay","population":3473727,"states":[{"id":173,"name":"(Unspecified)","population":3473727,"total":{"date":"2020-05-03","confirmed":652,"deaths":17,"recovered":440},"lat":"-32.52280000","lng":"-55.76580000"}],"total":{"date":"2020-05-03","confirmed":652,"deaths":17,"recovered":440},"lat":"-32.52280000","lng":"-55.76580000"},{"id":174,"name":"Uzbekistan","population":33469199,"states":[{"id":174,"name":"(Unspecified)","population":33469199,"total":{"date":"2020-05-03","confirmed":2136,"deaths":10,"recovered":1308},"lat":"41.37749100","lng":"64.58526200"}],"total":{"date":"2020-05-03","confirmed":2136,"deaths":10,"recovered":1308},"lat":"41.37749100","lng":"64.58526200"},{"id":175,"name":"Venezuela","population":28435943,"states":[{"id":175,"name":"(Unspecified)","population":28435943,"total":{"date":"2020-05-03","confirmed":345,"deaths":10,"recovered":148},"lat":"6.42380000","lng":"-66.58970000"}],"total":{"date":"2020-05-03","confirmed":345,"deaths":10,"recovered":148},"lat":"6.42380000","lng":"-66.58970000"},{"id":176,"name":"Vietnam","population":97338583,"states":[{"id":176,"name":"(Unspecified)","population":97338583,"total":{"date":"2020-05-03","confirmed":271,"deaths":0,"recovered":219},"lat":"14.05832400","lng":"108.27719900"}],"total":{"date":"2020-05-03","confirmed":271,"deaths":0,"recovered":219},"lat":"14.05832400","lng":"108.27719900"},{"id":177,"name":"West Bank and Gaza","population":5101416,"states":[{"id":177,"name":"(Unspecified)","population":5101416,"total":{"date":"2020-05-03","confirmed":353,"deaths":2,"recovered":76},"lat":"31.95220000","lng":"35.23320000"}],"total":{"date":"2020-05-03","confirmed":353,"deaths":2,"recovered":76},"lat":"31.95220000","lng":"35.23320000"},{"id":178,"name":"Western Sahara","population":597330,"states":[{"id":178,"name":"(Unspecified)","population":597330,"total":{"date":"2020-05-03","confirmed":6,"deaths":0,"recovered":5},"lat":"24.21550000","lng":"-12.88580000"}],"total":{"date":"2020-05-03","confirmed":6,"deaths":0,"recovered":5},"lat":"24.21550000","lng":"-12.88580000"},{"id":179,"name":"Yemen","population":29825968,"states":[{"id":179,"name":"(Unspecified)","population":29825968,"total":{"date":"2020-05-03","confirmed":10,"deaths":2,"recovered":1},"lat":"15.55272700","lng":"48.51638800"}],"total":{"date":"2020-05-03","confirmed":10,"deaths":2,"recovered":1},"lat":"15.55272700","lng":"48.51638800"},{"id":180,"name":"Zambia","population":18383956,"states":[{"id":180,"name":"(Unspecified)","population":18383956,"total":{"date":"2020-05-03","confirmed":124,"deaths":3,"recovered":78},"lat":"-13.13389700","lng":"27.84933200"}],"total":{"date":"2020-05-03","confirmed":124,"deaths":3,"recovered":78},"lat":"-13.13389700","lng":"27.84933200"},{"id":181,"name":"Zimbabwe","population":14862927,"states":[{"id":181,"name":"(Unspecified)","population":14862927,"total":{"date":"2020-05-03","confirmed":34,"deaths":4,"recovered":5},"lat":"-19.01543800","lng":"29.15485700"}],"total":{"date":"2020-05-03","confirmed":34,"deaths":4,"recovered":5},"lat":"-19.01543800","lng":"29.15485700"},{"id":182,"name":"Australia","population":25459700,"states":[{"id":208,"name":"(Unspecified)","population":25459700,"total":{"date":"2020-05-03","confirmed":17,"deaths":1,"recovered":14},"lat":"-25.00000000","lng":"133.00000000"},{"id":209,"name":"Australian Capital Territory","population":428100,"total":{"date":"2020-05-03","confirmed":106,"deaths":3,"recovered":103},"lat":"-35.47350000","lng":"149.01240000"},{"id":210,"name":"New South Wales","population":8118000,"total":{"date":"2020-05-03","confirmed":3035,"deaths":42,"recovered":2306},"lat":"-33.86880000","lng":"151.20930000"},{"id":211,"name":"Northern Territory","population":245600,"total":{"date":"2020-05-03","confirmed":29,"deaths":0,"recovered":24},"lat":"-12.46340000","lng":"130.84560000"},{"id":212,"name":"Queensland","population":5115500,"total":{"date":"2020-05-03","confirmed":1035,"deaths":6,"recovered":976},"lat":"-27.46980000","lng":"153.02510000"},{"id":213,"name":"South Australia","population":1756500,"total":{"date":"2020-05-03","confirmed":438,"deaths":4,"recovered":427},"lat":"-34.92850000","lng":"138.60070000"},{"id":214,"name":"Tasmania","population":535500,"total":{"date":"2020-05-03","confirmed":221,"deaths":13,"recovered":158},"lat":"-42.88210000","lng":"147.32720000"},{"id":215,"name":"Victoria","population":6629900,"total":{"date":"2020-05-03","confirmed":1384,"deaths":18,"recovered":1300},"lat":"-37.81360000","lng":"144.96310000"},{"id":216,"name":"Western Australia","population":2630600,"total":{"date":"2020-05-03","confirmed":551,"deaths":8,"recovered":520},"lat":"-31.95050000","lng":"115.86050000"}],"total":{"date":"2020-05-03","confirmed":6816,"deaths":95,"recovered":5828},"lat":"-25.00000000","lng":"133.00000000"},{"id":183,"name":"Canada","population":37855702,"states":[{"id":217,"name":"(Unspecified)","population":37855702,"total":{"confirmed":0,"deaths":0,"recovered":0},"lat":"60.00000000","lng":"-95.00000000"},{"id":218,"name":"Alberta","population":4413146,"total":{"date":"2020-05-03","confirmed":5670,"deaths":94,"recovered":0},"lat":"53.93330000","lng":"-116.57650000"},{"id":219,"name":"British Columbia","population":5110917,"total":{"date":"2020-05-03","confirmed":2171,"deaths":114,"recovered":0},"lat":"53.72670000","lng":"-127.64760000"},{"id":220,"name":"Manitoba","population":1377517,"total":{"date":"2020-05-03","confirmed":282,"deaths":6,"recovered":0},"lat":"53.76090000","lng":"-98.81390000"},{"id":221,"name":"New Brunswick","population":779993,"total":{"date":"2020-05-03","confirmed":118,"deaths":0,"recovered":0},"lat":"46.56530000","lng":"-66.46190000"},{"id":222,"name":"Newfoundland and Labrador","population":521365,"total":{"date":"2020-05-03","confirmed":259,"deaths":3,"recovered":0},"lat":"53.13550000","lng":"-57.66040000"},{"id":223,"name":"Northwest Territories","population":44904,"total":{"date":"2020-05-03","confirmed":5,"deaths":0,"recovered":0},"lat":"64.82550000","lng":"-124.84570000"},{"id":224,"name":"Nova Scotia","population":977457,"total":{"date":"2020-05-03","confirmed":963,"deaths":31,"recovered":0},"lat":"44.68200000","lng":"-63.74430000"},{"id":225,"name":"Ontario","population":14711827,"total":{"date":"2020-05-03","confirmed":18321,"deaths":1292,"recovered":0},"lat":"51.25380000","lng":"-85.32320000"},{"id":226,"name":"Prince Edward Island","population":158158,"total":{"date":"2020-05-03","confirmed":27,"deaths":0,"recovered":0},"lat":"46.51070000","lng":"-63.41680000"},{"id":227,"name":"Quebec","population":8537674,"total":{"date":"2020-05-03","confirmed":29664,"deaths":2136,"recovered":0},"lat":"52.93990000","lng":"-73.54910000"},{"id":228,"name":"Saskatchewan","population":1181666,"total":{"date":"2020-05-03","confirmed":421,"deaths":7,"recovered":0},"lat":"52.93990000","lng":"-106.45090000"},{"id":229,"name":"Yukon","population":41078,"total":{"date":"2020-05-03","confirmed":11,"deaths":0,"recovered":0},"lat":"64.28230000","lng":"-135.00000000"}],"total":{"date":"2020-05-03","confirmed":57912,"deaths":3683,"recovered":23814},"lat":"60.00000000","lng":"-95.00000000"},{"id":184,"name":"China","population":1404676330,"states":[{"id":233,"name":"(Unspecified)","population":1404676330,"total":{"confirmed":0,"deaths":0,"recovered":0},"lat":"30.59280000","lng":"114.30550000"},{"id":234,"name":"Anhui","population":63240000,"total":{"date":"2020-05-03","confirmed":991,"deaths":6,"recovered":985},"lat":"31.82570000","lng":"117.22640000"},{"id":235,"name":"Beijing","population":21540000,"total":{"date":"2020-05-03","confirmed":593,"deaths":9,"recovered":547},"lat":"40.18240000","lng":"116.41420000"},{"id":236,"name":"Chongqing","population":31020000,"total":{"date":"2020-05-03","confirmed":579,"deaths":6,"recovered":573},"lat":"30.05720000","lng":"107.87400000"},{"id":237,"name":"Fujian","population":39410000,"total":{"date":"2020-05-03","confirmed":356,"deaths":1,"recovered":353},"lat":"26.07890000","lng":"117.98740000"},{"id":238,"name":"Gansu","population":26370000,"total":{"date":"2020-05-03","confirmed":139,"deaths":2,"recovered":137},"lat":"37.80990000","lng":"101.05830000"},{"id":239,"name":"Guangdong","population":113460000,"total":{"date":"2020-05-03","confirmed":1588,"deaths":8,"recovered":1567},"lat":"23.34170000","lng":"113.42440000"},{"id":240,"name":"Guangxi","population":49260000,"total":{"date":"2020-05-03","confirmed":254,"deaths":2,"recovered":252},"lat":"23.82980000","lng":"108.78810000"},{"id":241,"name":"Guizhou","population":36000000,"total":{"date":"2020-05-03","confirmed":147,"deaths":2,"recovered":145},"lat":"26.81540000","lng":"106.87480000"},{"id":242,"name":"Hainan","population":9340000,"total":{"date":"2020-05-03","confirmed":168,"deaths":6,"recovered":162},"lat":"19.19590000","lng":"109.74530000"},{"id":243,"name":"Hebei","population":75560000,"total":{"date":"2020-05-03","confirmed":328,"deaths":6,"recovered":318},"lat":"39.54900000","lng":"116.13060000"},{"id":244,"name":"Heilongjiang","population":37730000,"total":{"date":"2020-05-03","confirmed":944,"deaths":13,"recovered":604},"lat":"47.86200000","lng":"127.76150000"},{"id":245,"name":"Henan","population":96050000,"total":{"date":"2020-05-03","confirmed":1276,"deaths":22,"recovered":1254},"lat":"33.88200000","lng":"113.61400000"},{"id":246,"name":"Hubei","population":59170000,"total":{"date":"2020-05-03","confirmed":68128,"deaths":4512,"recovered":63616},"lat":"30.97560000","lng":"112.27070000"},{"id":247,"name":"Hunan","population":68990000,"total":{"date":"2020-05-03","confirmed":1019,"deaths":4,"recovered":1015},"lat":"27.61040000","lng":"111.70880000"},{"id":248,"name":"Inner Mongolia","population":25340000,"total":{"date":"2020-05-03","confirmed":201,"deaths":1,"recovered":154},"lat":"44.09350000","lng":"113.94480000"},{"id":249,"name":"Jiangsu","population":80510000,"total":{"date":"2020-05-03","confirmed":653,"deaths":0,"recovered":650},"lat":"32.97110000","lng":"119.45500000"},{"id":250,"name":"Jiangxi","population":46480000,"total":{"date":"2020-05-03","confirmed":937,"deaths":1,"recovered":936},"lat":"27.61400000","lng":"115.72210000"},{"id":251,"name":"Jilin","population":27040000,"total":{"date":"2020-05-03","confirmed":112,"deaths":1,"recovered":102},"lat":"43.66610000","lng":"126.19230000"},{"id":252,"name":"Liaoning","population":43590000,"total":{"date":"2020-05-03","confirmed":146,"deaths":2,"recovered":144},"lat":"41.29560000","lng":"122.60850000"},{"id":253,"name":"Ningxia","population":6880000,"total":{"date":"2020-05-03","confirmed":75,"deaths":0,"recovered":75},"lat":"37.26920000","lng":"106.16550000"},{"id":254,"name":"Qinghai","population":6030000,"total":{"date":"2020-05-03","confirmed":18,"deaths":0,"recovered":18},"lat":"35.74520000","lng":"95.99560000"},{"id":255,"name":"Shaanxi","population":38640000,"total":{"date":"2020-05-03","confirmed":306,"deaths":3,"recovered":255},"lat":"35.19170000","lng":"108.87010000"},{"id":256,"name":"Shandong","population":100470000,"total":{"date":"2020-05-03","confirmed":787,"deaths":7,"recovered":772},"lat":"36.34270000","lng":"118.14980000"},{"id":257,"name":"Shanghai","population":24240000,"total":{"date":"2020-05-03","confirmed":652,"deaths":7,"recovered":612},"lat":"31.20200000","lng":"121.44910000"},{"id":258,"name":"Shanxi","population":37180000,"total":{"date":"2020-05-03","confirmed":197,"deaths":0,"recovered":176},"lat":"37.57770000","lng":"112.29220000"},{"id":259,"name":"Sichuan","population":83410000,"total":{"date":"2020-05-03","confirmed":561,"deaths":3,"recovered":558},"lat":"30.61710000","lng":"102.71030000"},{"id":260,"name":"Tianjin","population":15600000,"total":{"date":"2020-05-03","confirmed":190,"deaths":3,"recovered":185},"lat":"39.30540000","lng":"117.32300000"},{"id":261,"name":"Tibet","population":3440000,"total":{"date":"2020-05-03","confirmed":1,"deaths":0,"recovered":1},"lat":"31.69270000","lng":"88.09240000"},{"id":262,"name":"Xinjiang","population":24870000,"total":{"date":"2020-05-03","confirmed":76,"deaths":3,"recovered":73},"lat":"41.11290000","lng":"85.24010000"},{"id":263,"name":"Yunnan","population":48300000,"total":{"date":"2020-05-03","confirmed":185,"deaths":2,"recovered":181},"lat":"24.97400000","lng":"101.48700000"},{"id":264,"name":"Zhejiang","population":57370000,"total":{"date":"2020-05-03","confirmed":1268,"deaths":1,"recovered":1265},"lat":"29.18320000","lng":"120.09340000"},{"id":265,"name":"Hong Kong","population":7496988,"total":{"date":"2020-05-03","confirmed":1039,"deaths":4,"recovered":864},"lat":"22.30000000","lng":"114.20000000"},{"id":266,"name":"Macau","population":649342,"total":{"date":"2020-05-03","confirmed":45,"deaths":0,"recovered":37},"lat":"22.16670000","lng":"113.55000000"}],"total":{"date":"2020-05-03","confirmed":83959,"deaths":4637,"recovered":78586},"lat":"30.59280000","lng":"114.30550000"},{"id":185,"name":"United States","population":329466283,"states":[{"id":230,"name":"Diamond Princess","population":0,"total":{"date":"2020-05-03","confirmed":49,"deaths":0,"recovered":0},"lat":"0.00000000","lng":"0.00000000"},{"id":231,"name":"Grand Princess","population":0,"total":{"date":"2020-05-03","confirmed":103,"deaths":3,"recovered":0},"lat":"0.00000000","lng":"0.00000000"},{"id":232,"name":"Recovered","population":0,"total":{"confirmed":0,"deaths":0,"recovered":0},"lat":"0.00000000","lng":"0.00000000"},{"id":267,"name":"(Unspecified)","population":329466283,"total":{"date":"2020-05-03","confirmed":29510,"deaths":1123,"recovered":175382},"lat":"40.00000000","lng":"-100.00000000"},{"id":268,"name":"American Samoa","population":55641,"total":{"confirmed":0,"deaths":0,"recovered":0},"lat":"-14.27100000","lng":"-170.13200000"},{"id":269,"name":"Guam","population":164229,"total":{"date":"2020-05-03","confirmed":145,"deaths":5,"recovered":0},"lat":"13.44430000","lng":"144.79370000"},{"id":270,"name":"Northern Mariana Islands","population":55144,"total":{"date":"2020-05-03","confirmed":14,"deaths":2,"recovered":0},"lat":"15.09790000","lng":"145.67390000"},{"id":271,"name":"Virgin Islands","population":107268,"total":{"date":"2020-05-03","confirmed":66,"deaths":4,"recovered":0},"lat":"18.33580000","lng":"-64.89630000"},{"id":272,"name":"Puerto Rico","population":2933408,"total":{"date":"2020-05-03","confirmed":1757,"deaths":95,"recovered":0},"lat":"18.22080000","lng":"-66.59010000"},{"id":273,"name":"Alabama","population":4688897,"total":{"date":"2020-05-03","confirmed":7611,"deaths":288,"recovered":0},"lat":"32.31820000","lng":"-86.90230000"},{"id":274,"name":"Alaska","population":597749,"total":{"date":"2020-05-03","confirmed":365,"deaths":9,"recovered":0},"lat":"61.37070000","lng":"-152.40440000"},{"id":275,"name":"Arizona","population":7278717,"total":{"date":"2020-05-03","confirmed":8364,"deaths":330,"recovered":0},"lat":"33.72980000","lng":"-111.43120000"},{"id":276,"name":"Arkansas","population":2589027,"total":{"date":"2020-05-03","confirmed":3372,"deaths":72,"recovered":0},"lat":"34.96970000","lng":"-92.37310000"},{"id":277,"name":"California","population":39208620,"total":{"date":"2020-05-03","confirmed":53347,"deaths":2180,"recovered":0},"lat":"36.11620000","lng":"-119.68160000"},{"id":278,"name":"Colorado","population":5666813,"total":{"date":"2020-05-03","confirmed":16225,"deaths":832,"recovered":0},"lat":"39.05980000","lng":"-105.31110000"},{"id":279,"name":"Connecticut","population":3565287,"total":{"date":"2020-05-03","confirmed":29287,"deaths":2436,"recovered":0},"lat":"41.59780000","lng":"-72.75540000"},{"id":280,"name":"Delaware","population":973764,"total":{"date":"2020-05-03","confirmed":5038,"deaths":168,"recovered":0},"lat":"39.31850000","lng":"-75.50710000"},{"id":281,"name":"District of Columbia","population":705749,"total":{"date":"2020-05-03","confirmed":4797,"deaths":240,"recovered":0},"lat":"38.89740000","lng":"-77.02680000"},{"id":282,"name":"Florida","population":21232606,"total":{"date":"2020-05-03","confirmed":35463,"deaths":1364,"recovered":0},"lat":"27.76630000","lng":"-81.68680000"},{"id":283,"name":"Georgia","population":10139393,"total":{"date":"2020-05-03","confirmed":28331,"deaths":1177,"recovered":0},"lat":"33.04060000","lng":"-83.64310000"},{"id":284,"name":"Hawaii","population":1415786,"total":{"date":"2020-05-03","confirmed":620,"deaths":16,"recovered":0},"lat":"21.09430000","lng":"-157.49830000"},{"id":285,"name":"Idaho","population":1610497,"total":{"date":"2020-05-03","confirmed":2061,"deaths":64,"recovered":0},"lat":"44.24050000","lng":"-114.47880000"},{"id":286,"name":"Illinois","population":11735653,"total":{"date":"2020-05-03","confirmed":58505,"deaths":2559,"recovered":0},"lat":"40.34950000","lng":"-88.98610000"},{"id":287,"name":"Indiana","population":6543994,"total":{"date":"2020-05-03","confirmed":19295,"deaths":1115,"recovered":0},"lat":"39.84940000","lng":"-86.25830000"},{"id":288,"name":"Iowa","population":2620713,"total":{"date":"2020-05-03","confirmed":8643,"deaths":175,"recovered":0},"lat":"42.01150000","lng":"-93.21050000"},{"id":289,"name":"Kansas","population":2438488,"total":{"date":"2020-05-03","confirmed":4885,"deaths":142,"recovered":0},"lat":"38.52660000","lng":"-96.72650000"},{"id":290,"name":"Kentucky","population":3423303,"total":{"date":"2020-05-03","confirmed":4879,"deaths":248,"recovered":0},"lat":"37.66810000","lng":"-84.67010000"},{"id":291,"name":"Louisiana","population":4597266,"total":{"date":"2020-05-03","confirmed":29140,"deaths":1993,"recovered":0},"lat":"31.16950000","lng":"-91.86780000"},{"id":292,"name":"Maine","population":1174006,"total":{"date":"2020-05-03","confirmed":1153,"deaths":56,"recovered":0},"lat":"44.69390000","lng":"-69.38190000"},{"id":293,"name":"Maryland","population":5943335,"total":{"date":"2020-05-03","confirmed":24473,"deaths":1251,"recovered":0},"lat":"39.06390000","lng":"-76.80210000"},{"id":294,"name":"Massachusetts","population":6863772,"total":{"date":"2020-05-03","confirmed":66263,"deaths":3846,"recovered":0},"lat":"42.23020000","lng":"-71.53010000"},{"id":295,"name":"Michigan","population":7967259,"total":{"date":"2020-05-03","confirmed":43207,"deaths":4021,"recovered":0},"lat":"43.32660000","lng":"-84.53610000"},{"id":296,"name":"Minnesota","population":4946446,"total":{"date":"2020-05-03","confirmed":6232,"deaths":394,"recovered":0},"lat":"45.69450000","lng":"-93.90020000"},{"id":297,"name":"Mississippi","population":2895206,"total":{"date":"2020-05-03","confirmed":7441,"deaths":291,"recovered":0},"lat":"32.74160000","lng":"-89.67870000"},{"id":298,"name":"Missouri","population":5859456,"total":{"date":"2020-05-03","confirmed":8356,"deaths":376,"recovered":0},"lat":"38.45610000","lng":"-92.28840000"},{"id":299,"name":"Montana","population":865987,"total":{"date":"2020-05-03","confirmed":455,"deaths":16,"recovered":0},"lat":"46.92190000","lng":"-110.45440000"},{"id":300,"name":"Nebraska","population":1525272,"total":{"date":"2020-05-03","confirmed":5317,"deaths":73,"recovered":0},"lat":"41.12540000","lng":"-98.26810000"},{"id":301,"name":"Nevada","population":3016697,"total":{"date":"2020-05-03","confirmed":5389,"deaths":255,"recovered":0},"lat":"38.31350000","lng":"-117.05540000"},{"id":302,"name":"New Hampshire","population":1328148,"total":{"date":"2020-05-03","confirmed":2429,"deaths":84,"recovered":0},"lat":"43.45250000","lng":"-71.56390000"},{"id":303,"name":"New Jersey","population":8882190,"total":{"date":"2020-05-03","confirmed":123717,"deaths":7742,"recovered":0},"lat":"40.29890000","lng":"-74.52100000"},{"id":304,"name":"New Mexico","population":1667533,"total":{"date":"2020-05-03","confirmed":3732,"deaths":138,"recovered":0},"lat":"34.84050000","lng":"-106.24850000"},{"id":305,"name":"New York","population":16861025,"total":{"date":"2020-05-03","confirmed":312977,"deaths":24198,"recovered":0},"lat":"42.16570000","lng":"-74.94810000"},{"id":306,"name":"North Carolina","population":9917875,"total":{"date":"2020-05-03","confirmed":11588,"deaths":431,"recovered":0},"lat":"35.63010000","lng":"-79.80640000"},{"id":307,"name":"North Dakota","population":606418,"total":{"date":"2020-05-03","confirmed":1153,"deaths":24,"recovered":0},"lat":"47.52890000","lng":"-99.78400000"},{"id":308,"name":"Ohio","population":11173860,"total":{"date":"2020-05-03","confirmed":19335,"deaths":1022,"recovered":0},"lat":"40.38880000","lng":"-82.76490000"},{"id":309,"name":"Oklahoma","population":3657634,"total":{"date":"2020-05-03","confirmed":3851,"deaths":238,"recovered":0},"lat":"35.56530000","lng":"-96.92890000"},{"id":310,"name":"Oregon","population":4007074,"total":{"date":"2020-05-03","confirmed":2635,"deaths":109,"recovered":0},"lat":"44.57200000","lng":"-122.07090000"},{"id":311,"name":"Pennsylvania","population":12587497,"total":{"date":"2020-05-03","confirmed":50494,"deaths":2695,"recovered":0},"lat":"40.59080000","lng":"-77.20980000"},{"id":312,"name":"Rhode Island","population":1059361,"total":{"date":"2020-05-03","confirmed":9289,"deaths":296,"recovered":0},"lat":"41.68090000","lng":"-71.51180000"},{"id":313,"name":"South Carolina","population":5039975,"total":{"date":"2020-05-03","confirmed":6489,"deaths":267,"recovered":0},"lat":"33.85690000","lng":"-80.94500000"},{"id":314,"name":"South Dakota","population":735892,"total":{"date":"2020-05-03","confirmed":2588,"deaths":21,"recovered":0},"lat":"44.29980000","lng":"-99.43880000"},{"id":315,"name":"Tennessee","population":6564929,"total":{"date":"2020-05-03","confirmed":12661,"deaths":209,"recovered":0},"lat":"35.74780000","lng":"-86.69230000"},{"id":316,"name":"Texas","population":22984561,"total":{"date":"2020-05-03","confirmed":30917,"deaths":863,"recovered":0},"lat":"31.05450000","lng":"-97.56350000"},{"id":317,"name":"Utah","population":2865882,"total":{"date":"2020-05-03","confirmed":4985,"deaths":49,"recovered":0},"lat":"40.15000000","lng":"-111.86240000"},{"id":318,"name":"Vermont","population":610591,"total":{"date":"2020-05-03","confirmed":886,"deaths":51,"recovered":0},"lat":"44.04590000","lng":"-72.71070000"},{"id":319,"name":"Virginia","population":7907230,"total":{"date":"2020-05-03","confirmed":17738,"deaths":617,"recovered":0},"lat":"37.76930000","lng":"-78.17000000"},{"id":320,"name":"Washington","population":7549403,"total":{"date":"2020-05-03","confirmed":15003,"deaths":830,"recovered":0},"lat":"47.40090000","lng":"-121.49050000"},{"id":321,"name":"West Virginia","population":1322998,"total":{"date":"2020-05-03","confirmed":1185,"deaths":48,"recovered":0},"lat":"38.49120000","lng":"-80.95450000"},{"id":322,"name":"Wisconsin","population":5174571,"total":{"date":"2020-05-03","confirmed":7660,"deaths":334,"recovered":0},"lat":"44.26850000","lng":"-89.61650000"},{"id":323,"name":"Wyoming","population":497240,"total":{"date":"2020-05-03","confirmed":579,"deaths":7,"recovered":0},"lat":"42.75600000","lng":"-107.30250000"},{"id":324,"name":"US Military","population":0,"total":{"confirmed":0,"deaths":0,"recovered":0},"lat":"0.00000000","lng":"0.00000000"},{"id":325,"name":"Federal Bureau of Prisons","population":0,"total":{"confirmed":0,"deaths":0,"recovered":0},"lat":"0.00000000","lng":"0.00000000"},{"id":326,"name":"Veteran Hospitals","population":0,"total":{"confirmed":0,"deaths":0,"recovered":0},"lat":"0.00000000","lng":"0.00000000"}],"total":{"date":"2020-05-03","confirmed":1162049,"deaths":67492,"recovered":175382},"lat":"40.00000000","lng":"-100.00000000"},{"id":186,"name":"Global","population":7699254118,"states":[{"id":327,"name":"(Unspecified)","population":7699254118,"total":{"date":"2020-05-03","confirmed":3507905,"deaths":245639,"recovered":1140728},"lat":"0.00000000","lng":"0.00000000"}],"total":{"date":"2020-05-03","confirmed":3507905,"deaths":245639,"recovered":1140728},"lat":"0.00000000","lng":"0.00000000"}]